db_name,canonical_name,lat,long,checked
PEOPLES PARK,People's Park,37.8658134,-122.2570583,1
REC SPRT FAC,Recreational Sports Facility,37.867412,-122.262819,1
LI KA SHING,Li Ka Shing Center,37.87316,-122.265167,1
UCPD,"UC Berkeley Extension, 1995 University Ave #110, Berkeley, CA 94704, USA",37.869598,-122.258776,1
DWINELLE HALL,Dwinelle Hall,37.8707,-122.260552,1
EVANS HALL,Evans Hall,37.8736514,-122.2577944,1
UNKNOWN,"Berkeley, CA, USA",37.8715926,-122.272747,1
UPPER SPROUL PLAZA,Upper Sproul Plaza,37.8695385,-122.2593363,1
ASUC,"Martin Luther King Jr Student Union Asuc, Berkeley, CA 94704, USA",37.8692195,-122.2596727,1
VALLEY LSB,Valley Life Sciences Building,37.8715305,-122.2620337,1
LIFE SCIENCE ADDITION,Life Sciences Addition,37.8713948,-122.2632527,1
HAAS PAVILION,Haas Pavilion,37.869401,-122.2623135,1
GOLDEN BEAR RESTAURANT,Golden Bear Cafe,37.8696075,-122.259606,1
MEMORIAL STADIUM,California Memorial Stadium,37.8712097,-122.2502811,1
I HOUSE,International House,37.869504,-122.251766,1
SATHER TOWER,Sather Tower,37.8720616,-122.2578123,1
TANG CENTER,Tang Center,37.8676679,-122.2642858,1
ANIMAL BEHAVIOR,"Berkeley, CA, USA",37.8715926,-122.272747,1
0 MEMORIAL STADIUM,California Memorial Stadium,37.8712097,-122.2502811,1
UNDERHILL LOT,Underhill Parking and Field,37.8669127,-122.254971,1
UNIVERSITY VILLAGE ALBANY,University Village,37.8849256,-122.3010808,1
WHEELER HALL,Wheeler Hall,37.8713074,-122.2591493,1
SPROUL HALL,Sproul Hall,37.8695068,-122.2587781,1
CAMPUS,Campus,37.8695385,-122.2593363,1
HAAS BUSINESS SCHOOL,Haas School of Business,37.8717284,-122.2533872,1
UNIT-2,Unit 2 Residence Hall,37.8669127,-122.2549711,1
UNIT-3,Unit 3 Residence Hall,37.8671335,-122.2605121,1
UNIT-1,Unit 1 Residence Hall,37.8677857,-122.260512,1
DOE LIBRARY,Doe Memorial Library,37.8722083,-122.2594927,1
WITTER FIELD,Witter Field,37.8711896,-122.248727,1
WURSTER HALL,Wurster Hall,37.8707352,-122.2548935,1
BARROWS HALL,Barrows Hall,37.8700441,-122.2579335,1
UNIVERSITY HALL,University Hall,37.8719085,-122.2664944,1
MOFFITT LIBRARY,Moffitt Undergraduate Library,37.8725425,-122.2608496,1
TOLMAN HALL,Tolman Hall,37.8741044,-122.2638912,1
LAWRENCE HALL OF SCIENCE,Lawrence Hall of Science,37.880289,-122.246218,1
STANLEY HALL,Stanley Hall,37.8740002,-122.2560525,1
0 LI KA SHING,Li Ka Shing Center,37.8731596,-122.2651666,1
KROEBER HALL,Kroeber Hall,37.869853,-122.2551518,1
GREEK THEATER,Hearst Greek Theatre,37.8735609,-122.2544216,1
BOALT HALL,Boalt Hall,37.8699767,-122.2532914,1
0 CESAR CHAVEZ CENTER,Cesar Chavez Student Center,37.8697743,-122.2600361,1
CROSSROADS,Crossroads,37.8670428,-122.256056,1
CESAR CHAVEZ CENTER,Cesar Chavez Student Center,37.8697743,-122.2600361,1
STRUCTURE C,"University Hall Structure, Berkeley, CA 94704, USA",37.871141,-122.2666574,1
HEARST GYM,Hearst Memorial Gymnasium,37.869336,-122.257464,1
CLARK KERR CAMPUS,Clark Kerr Campus,37.8641271,-122.2503106,1
BARROWS LANE,Barrow Lane,37.869618,-122.258506,1
0 MSRI,Mathematical Sciences Research Institute,37.8798164,-122.244322,1
LAWRENCE BERKELEY NATIONAL LAB,Lawrence Berkeley National Laboratory,37.8754404,-122.2455364,1
BERKELEY,"Berkeley, Campanile Way, Berkeley, CA 94720, USA",37.8717707,-122.258606,1
STERN HALL,Stern Hall,37.8750195,-122.2555552,1
2108 ALLSTON WAY,2108 Allston Way,37.869197,-122.267441,1
EAST ASIAN LIBRARY,C. V. Starr East Asian Library,37.8735528,-122.2602939,1
LATIMER HALL,Latimer Hall,37.8731064,-122.2559915,1
MCCONE HALL,McCone Hall,37.8740981,-122.2596515,1
LECONTE HALL,LeConte Hall,37.872497,-122.2572678,1
MAX MARTINEZ,Maximo Martinez Commons,37.8666016,-122.257757,1
0 MOFFITT LIBRARY,Moffitt Undergraduate Library,37.8725425,-122.2608496,1
COFFER DAM,,,,1
MINOR HALL,Minor Hall,37.8714283,-122.2547013,1
REC SPRT FAC GARAGE,RSF Parking Garage,37.8686655,-122.263577,1
CORY HALL,Cory Hall,37.8750364,-122.2573242,1
SATHER GATE,Sather Gate,37.8702548,-122.2594874,1
2120 OXFORD,2120 Oxford St,37.870862,-122.2660877,1
KOSHLAND HALL,Koshland Hall,37.8739448,-122.2649042,1
WEST CRESCENT,West Crescent,37.871837,-122.265041,1
SMYTH-FERNWALD,Smyth-Fernwald Apartments,37.8660453,-122.247593,1
BARKER HALL,Barker Hall,37.8739795,-122.2654404,1
EDWARDS TRACK,Edwards Track,37.8690062,-122.2648111,1
UNIV HOUSE,University House Way,37.8738045,-122.2618507,1
FOOTHILL LOT,Foothill Lot,37.8738883,-122.2524713,1
HILDEBRAND HALL,Hildebrand Hall,37.8725358,-122.2557257,1
0 HAAS BUSINESS SCHOOL,Haas School of Business,37.8717284,-122.2533872,1
ZELLERBACH HALL,Zellerbach Hall,37.8690998,-122.260838,1
STRUCTURE A,,,,1
CKC-1,Clark Kerr Campus Building 1,37.8638051,-122.24936,1
OAKLAND,,,,1
HAVILAND HALL,Haviland Hall,37.8737118,-122.2610484,1
GIANNINI HALL,Giannini Hall,37.8735349,-122.2622986,1
MATHEMATICAL SCIENCES RESEARCH INSTITUTE,Mathematical Sciences Research Institute,37.8798164,-122.2443215,1
3200 REGATTA BLVD,,,,1
CKC-12,Clark Kerr Campus Building 12,37.8638051,-122.24936,1
ANNA HEAD,Anna Head Alumnae Hall,37.8663273,-122.2575953,1
CALIFORNIA HALL,California Hall,37.8718399,-122.2603363,1
LOWER SPROUL PLAZA,Lower Sproul Plaza,37.8691454,-122.2602313,1
EUCALYPTUS GROVE,Eucalyptus Grove,37.8711164,-122.2644763,1
CENTENNIAL DR,Centennial Dr,37.8779175,-122.2434931,1
2610 CHANNING WAY,2610 Channing Way,37.8670799,-122.2556761,1
0 UNIT-2 DAVIDSON,Unit 2 Davidson Hall,37.8662746,-122.2542044,1
UNIT-3 PRIESTLY,Unit 3 Priestly Hall,37.8672277,-122.260406,1
UNIT-3 IDA SPROUL,Unit 3 Ida Sproul Hall,37.8672277,-122.260406,1
OXFORD TRACT,Oxford Tract,37.8754884,-122.267609,1
MORRISON HALL,Morrison Hall,37.870892,-122.2563905,1
MULFORD HALL,Mulford Hall,37.8726096,-122.2644811,1
STEPHENS HALL,Stephens Hall,37.8712636,-122.2575921,1
1995 UNIVERSITY AV,1995 University Ave,37.8722046,-122.2712868,1
SUTARDJA DAI HALL,Sutardja Dai Hall,37.8747924,-122.2583104,1
BOTANICAL GARDENS,University of California Botanical Gardens,37.8740622,-122.2373817,1
0 UNIT-2 EHRMAN,Unit 2 Ehrman Hall,37.8658323,-122.2553345,1
UNIT-3 SPENS/BLACK,Unit 3 Spens-Black Hall,37.8671726,-122.2603606,1
DWINELLE PLAZA,Dwinelle Plaza,37.87077,-122.2605773,1
2339 HASTE ST,2339 Haste St,37.8658494,-122.2615313,1
SAN FRANCISCO,,,,1
GILL TRACT,Gill Tract,37.885719,-122.298731,1
2150 KITTREDGE ST,2150 Kittredge St,37.8684839,-122.2668623,1
SPACE SCIENCES,Space Sciences Laboratory,37.8805941,-122.2447958,1
0 UNIT-3 NORTON,Unit 3 Norton Hall,37.8672277,-122.260406,1
TAN HALL,Tan Kah Kee Hall,37.8730955,-122.2563923,1
2000 CARLETON,2000 Carleton St,37.8609355,-122.2695117,1
FOOTHILL COMPLEX,Foothill Complex,37.8754481,-122.255814,1
SIMPSON CENTER,Simpson Center,37.870171,-122.251807,1
MEMORIAL GLADE,Memorial Glade,37.8730593,-122.2594471,1
SPIEKER PLAZA,Spieker Plaza,37.8694723,-122.261637,1
BOWLES HALL,Bowles Hall,37.8733996,-122.2530226,1
ETCHEVERRY HALL,Etcheverry Hall,37.8756626,-122.2592805,1
0 UNIT-3 PRIESTLY,Unit 3 Priestly Hall,37.8672277,-122.260406,1
GRIZZLY PEAK BLVD,Grizzly Peak Blvd,37.8828052,-122.2451178,1
0 UNIT-2 GRIFFITH,Unit 2 Griffiths Hall,37.8658151,-122.2542694,1
0 UNIT-2 CUNNINGHAM,Unit 2 Cunninghal Hall,37.8663027,-122.2552402,1
MOSES HALL,Moses Hall,37.8710551,-122.2578523,1
2223 FULTON ST,Athletic Ticket Office,37.8687668,-122.265849,1
UNIT-2 GRIFFITH,Unit 2 Griffiths Hall,37.8658151,-122.2542694,1
CKC-2,Clark Kerr Campus Building 2,37.8638051,-122.24936,1
NORTH SPROUL LOT,North Sproul Lot,37.870062,-122.259019,1
BIRGE HALL,Birge Hall,37.8722322,-122.2571898,1
2481 HEARST,2481 Hearst Ave,37.8750743,-122.2605792,1
STRUCTURE H,,,,1
ALUMNI HOUSE,Alumni House,37.8696964,-122.2611015,1
0 DWINELLE HALL,Dwinelle Hall,37.8707,-122.260552,1
LHS LOT,Lawrence Hall of Science Lot,37.880289,-122.246218,1
DAVIS HALL,Davis Hall,37.8746326,-122.2581201,1
HARGROVE MUSIC LIBRARY,Jean Gray Hargrove Music Library,37.8704475,-122.2561283,1
STRUCTURE U,,,,1
0 UNIT-1 DEUTSCH,Unit 1 Deutsch Hall,37.8676153,-122.2557099,1
CKC-25,Clark Kerr Campus Building 25,37.86541,-122.247156,1
STRUCTURE D,,,,1
ASUC GARAGE,"Berkeley, CA, USA",37.8715926,-122.272747,1
UNIT-1 CHRISTIAN,Unit 1 Christian Hall,37.8677857,-122.260512,1
DOE ANNEX,Doe Annex,37.8722729,-122.259666,1
2515 HILLEGASS AV,2515 Hillegass Ave,37.8647924,-122.2561816,1
BOWLES LOT,Bowles Lot,37.8729394,-122.25395,1
UVA OFFICE,University Village,37.8849256,-122.3010808,1
1608 4TH ST,1608 4th St,37.8732388,-122.3014842,1
STUDENT ATHLETICS HIGH PERFORMANCE CENTER,Simpson Center,37.870171,-122.251807,1
UNIT-2 CUNNINGHAM,Unit 2 Cunningham Hall,37.8663027,-122.2552402,1
CKC-3,Clark Kerr Campus Building 3,37.8638051,-122.24936,1
ROCHDALE VILLAGE,Rochedale Village,37.8657593,-122.2594134,1
UNIT-2 TOWLE,Unit 2 Towles Hall,37.8663429,-122.2546476,1
UNIT-1 SLOTTMAN,Unit 1 Slottman Hall,37.867555,-122.2552224,1
NORTHGATE HALL,North Gate Hall,37.8749998,-122.2596684,1
UNIT-2 EHRMAN,Unit 2 Ehrman Hall,37.8658323,-122.2553345,1
BEARS LAIR,Bear’s Lair,37.8689483,-122.259846,1
GRINNELL PATH,Grinnell Pathway,37.8708016,-122.2643656,1
UNIT-3 NORTON,Unit 3 Norton Hall,37.8672277,-122.260406,1
0 HARGROVE MUSIC LIBRARY,Jean Gray Hargrove Music Library,37.8704475,-122.2561283,1
RICHMOND FIELD STATION,Richmond Field Station,37.9170318,-122.329848,1
2121 ALLSTON WAY,2121 Allston Way,37.8697676,-122.2668361,1
0 GIANNINI HALL,Giannini Hall,37.8735349,-122.2622986,1
0 HEARST MINING BUILDING,Hearst Memorial Mining Building,37.8744829,-122.2572541,1
0 UNIT-1 CHENEY,Unit 1 Cheney Hall,37.8680608,-122.2556064,1
SIGNPOST-16,,,,1
SODA HALL,Soda Hall,37.8757151,-122.2590485,1
2150 SHATTUCK AV,2150 Shattuck Ave,37.870019,-122.268613,1
HEARST FIELD ANNEX,Hearst Field Annex,37.8694693,-122.2581587,1
UNIT-1 DEUTSCH,Unit 1 Deutsch Hall,37.8676153,-122.2557099,1
UNIT-2 DAVIDSON,Unit 2 Davidson Hall,37.8662746,-122.2542044,1
CKC-7,Clark Kerr Campus Building 7,37.8638051,-122.24936,1
ESHLEMAN HALL,Eshleman Hall,37.8691329,-122.259453,1
ANNA HEAD LOT,Anna Head Parking Lot,37.86654,-122.2577048,1
0 SODA HALL,Soda Hall,37.8757151,-122.2590485,1
SHARED SERVICES,,,,1
UNIT-1 CHENEY,Unit 1 Cheney Hall,37.8680608,-122.2556064,1
2424 HASTE ST,2424 Haste St,37.8656948,-122.2597509,1
MORGAN HALL,Morgan Hall,37.8733142,-122.2642064,1
UNIT-1 PUTNAM,Unit 1 Putnam Hall,37.8676154,-122.2546287,1
0 UNIT-1 PUTNAM,Unit 1 Putnam Hall,37.8676154,-122.2546287,1
UNIT-2 WADA,Unit 2 Wada Hall,37.8657843,-122.2548611,1
0 DOE LIBRARY,Doe Memorial Library,37.8722083,-122.2594927,1
GENETICS & PLANT BIOLOGY,Genetics & Plant Biology Building,37.8734357,-122.2647492,1
0 TANG CENTER,Tang Center,37.8676679,-122.2642858,1
0 MAX MARTINEZ,Maximo Martinez Commons,37.8666016,-122.257757,1
BANCROFT/FULTON LOT,Bancroft /Fulton Parking Lot,37.8675781,-122.2651172,1
GROVE,Eucalyptus Grove,37.8711164,-122.2644763,1
0 UNIT-3 SPENS/BLACK,Unit 3 Spens-Black Hall,37.8671726,-122.2603606,1
KROEBER PLAZA,Kroeber Plaza,37.869853,-122.2551518,1
SIMON HALL,Simon Hall,37.8699767,-122.2532914,1
ENERGY BIOSCIENCES INSTITUTE,Energy Biosciences Institute,37.8738531,-122.266906,1
2401 BANCROFT WAY,2401 Bancroft Way,37.8686741,-122.2611621,1
UVA,University Village,37.8849256,-122.3010808,1
ANTHONY HALL,Anthony Hall,37.8706032,-122.258192,1
GPB GARAGE,Genetics & Plant Biology Garage,37.8734357,-122.2647492,1
CHEIT HALL,Cheit Hall,37.8723708,-122.2548585,1
0 BOALT HALL,Boalt Hall,37.8699767,-122.2532914,1
CAMPBELL HALL,Campbell Hall,37.8730114,-122.2569644,1
2424 CHANNING WAY,2424 Channing Way,37.8666774,-122.2594715,1
UAM,,,,1
FOOTHILL-1,Foothill Building 1,37.8757424,-122.2563979,1
1936 UNIVERSITY AV,1936 University Ave,37.8712817,-122.2720796,1
BANCROFT/DANA LOT,Bancroft/Dana Lot,37.868432,-122.261424,1
1952 OXFORD,1952 Oxford St,37.87305,-122.266521,1
CLOYNE COURT,Cloyne Court Hotel,37.8760914,-122.2578465,1
BLACKBERRY CANYON GATE,Blackberry Canyon Entrance,37.8752621,-122.2531336,1
CKC-4,Clark Kerr Campus Building 4,37.8638051,-122.24936,1
UNIT-1 FREEBORN,Unit 1 Freeborn Hall,37.8680352,-122.2545825,1
2650 HASTE ST,2650 Haste St,37.8662874,-122.2552508,1
FRANK SCHLESSINGER WAY,Frank Schlessinger Way,37.8705786,-122.2638617,1
MANVILLE APTS,Manville Apartments,37.865799,-122.266847,1
MAXWELL FIELD,Maxwell Family Field,37.8722958,-122.252699,1
CLEARY HALL,Unit 3 Beverly Cleary Hall,37.8664916,-122.2596211,1
0 RFS-201,,,,1
CALVIN LAB,Melvin Calvin Laboratory,37.8709969,-122.2539394,1
0 I HOUSE,International House,37.869504,-122.251766,1
DWINELLE LOT,Dwinelle Lot,37.8703395,-122.2612068,1
HERTZ HALL,Hertz Hall,37.8710811,-122.2556994,1
0 BARROWS HALL,Barrows Hall,37.8700441,-122.2579335,1
MENS FACULTY CLUB,Men’s Faculty Club,37.8716886,-122.255906,1
CKC-8,Clark Kerr Campus Building 8,37.8638051,-122.24936,1
LHS TERRACE LOT,Lawrence Hall of Science Lot,37.880289,-122.246218,1
0 WHEELER HALL,Wheeler Hall,37.8713074,-122.2591493,1
0 ASUC,Martin Luther King Jr Student Union,37.8692195,-122.2596727,1
HILGARD HALL,Hilgard Hall,37.8733109,-122.2634045,1
LBNL-90,Lawrence Berkeley National Laboratory,37.8754404,-122.2455364,1
NW ANIM FACIL,,,,1
0 TOLMAN HALL,Tolman Hall,37.8741044,-122.2638912,1
HESSE HALL,Hesse Hall,37.8743128,-122.2593508,1
BECHTEL HALL,Bechtel Engineering Center,37.8741858,-122.258188,1
945 OHLONE AVE,945 Ohlone Ave,37.8855041,-122.3010548,1
435 GOODING WAY,435 Gooding Way,37.8848116,-122.3016412,1
CKC-23,Clark Kerr Campus Building 23,37.8638051,-122.24936,1
DONNER LAB,Donner Lab,37.8744177,-122.256305,1
MCLAUGHLIN HALL,McLauglin Hall,37.8738011,-122.2589949,1
BOALT LOT,Boalt Lot,37.8699767,-122.2532914,1
0 WURSTER HALL,Wurster Hall,37.8707352,-122.2548935,1
0 ESHLEMAN HALL,Eshleman Hall,37.8691329,-122.259453,1
DURANT HALL,Durant Hall,37.8712498,-122.2600955,1
0 HAAS PAVILION,Haas Pavilion,37.869401,-122.2623135,1
2650 DURANT AV,2650 Durant Ave,37.8679425,-122.2549152,1
605 OHLONE AVE,605 Ohlone Ave,37.8852204,-122.3027025,1
TOUCHLESS,,,,1
1040 JACKSON STREET,1040 Jackson St,37.8845112,-122.3002149,1
300 GOODING WAY,300 Gooding Way,37.88537,-122.3018719,1
0 UNIT-1 FREEBORN,Unit 1 Freeborn Hall,37.8680352,-122.2545825,1
GOLDMAN SCHOOL PUBLIC POLICY,Goldman School of Public Policy,37.8757535,-122.2578444,1
0 LECONTE HALL,LeConte Hall,37.872497,-122.2572678,1
2521 CHANNING WAY,2521 Channing Way,37.8672348,-122.2578788,1
DWINELLE ANNEX,Dwinelle Annex,37.8703395,-122.2612068,1
BAN/TELE,Bancroft/Telegraph,37.868712,-122.259173,1
BANCROFT/TELEGRAPH,Bancroft/Telegraph,37.8666995,-122.2747672,1
PROJECT 29A,,,,1
CKC-9,Clark Kerr Campus Building 9,37.8638051,-122.24936,1
0 CENTENNIAL DR,Centennial Dr,37.8793463,-122.2458043,1
LEWIS HALL,Lewis Hall,37.8730663,-122.255193,1
CKC-10,Clark Kerr Campus Building 10,37.8638051,-122.24936,1
HAAS CLUBHOUSE POOL,"Berkeley, CA, USA",37.8715926,-122.272747,1
NORTH GATE,North Gate Hall,37.8749998,-122.2596684,1
2334 BOWDITCH ST,2334 Bowditch St,37.8669519,-122.2565397,1
FOOTHILL-6,Foothill Building 6,37.8743169,-122.2543218,1
0 EVANS HALL,Evans Hall,37.8736514,-122.2577944,1
0 SPACE SCIENCES,Space Sciences Laboratory,37.8805941,-122.2447958,1
BIKE BUREAU,"Berkeley, CA, USA",37.8715926,-122.272747,1
755 OHLONE AVE,755 Ohlone Ave,37.8855338,-122.3016485,1
FOOTHILL-2,Foothill Building 2,37.8763325,-122.2565547,1
0 ROCHDALE VILLAGE,Rochdale Village Apartments,37.8656691,-122.2599053,1
STRUCTURE B,,,,1
2200 BANCROFT WAY,2200 Bancroft Way,37.867428,-122.2655774,1
FENWICK WEAVERS,Fenwick Weavers Village,37.8655988,-122.2605589,1
BANCROFT LIBRARY,Bancroft Library,37.8722012,-122.2586975,1
WITTER FIELD LOT,Witter Field,37.8711896,-122.248727,1
FACULTY GLADE,Faculty Glade,37.8713828,-122.2566152,1
UVA-168,University Village,37.8849256,-122.3010808,1
0 RIMWAY ROAD,"Stadium Rim Way, Berkeley, CA, USA",37.8722193,-122.2512802,1
0 ZELLERBACH HALL,Zellerbach Hall,37.8690998,-122.260838,1
FOOTHILL-8,Foothill Building 8,37.8743169,-122.2543218,1
0 BARKER HALL,Barker Hall,37.8739795,-122.2654404,1
FOOTHILL-4,Foothill Building 4,37.87538,-122.2561211,1
1051 MONROE STREET,1051 Monroe St,37.8843821,-122.2993269,1
CHANNING CIR,Channing Circle,37.867791,-122.251912,1
0 KROEBER HALL,Kroeber Hall,37.869853,-122.2551518,1
LBNL-76,Lawrence Berkeley National Laboratory,37.8754404,-122.2455364,1
WELLMAN HALL,Wellman Hall,37.8731726,-122.2627881,1
SOUTH HALL,South Hall,37.8714319,-122.2584987,1
CKC-11,Clark Kerr Campus Building 11,37.8638051,-122.24936,1
2850 TELEGRAPH AV,2850 Telegraph Ave,37.8582624,-122.2597806,1
STRAWBERRY REC CENTER,Strawberry Canyon Center,37.8714271,-122.247278,1
UVA-161,University Village,37.8849256,-122.3010808,1
UNIVERSITY DR,University Dr,37.8731833,-122.2587863,1
HEARST MINING BUILDING,Hearst Memorial Mining Building,37.8744829,-122.2572541,1
OBRIEN HALL,O'Brien Hall,37.8744045,-122.2590432,1
2440 BANCROFT WAY,2440 Bancroft Way,37.8684064,-122.2605113,1
CKC TRACK,Clark Kerr Track,37.8648156,-122.2457136,1
2535 CHANNING WAY,Channing-Bowditch Apartments,37.8673656,-122.2573096,1
0 LATIMER HALL,Latimer Hall,37.8731064,-122.2559915,1
BANC TELE,Bancroft/Telegraph,37.868717,-122.259155,1
GILMAN HALL,Gilman Hall,37.8726546,-122.2563024,1
0 MCCONE HALL,McCone Hall,37.8740981,-122.2596515,1
RIM/GAYLEY,Rim Way and Gayley Avenue,37.8725667,-122.253758,1
CKC-22,Clark Kerr Campus Building 22,37.8638051,-122.24936,1
1125 JACKSON STREET,1125 Jackson St,37.8833963,-122.2995862,1
300 LAKESIDE DR,"3838 Hollis St #300, Emeryville, CA 94608, USA",37.8287398,-122.2818705,1
685 LIBERTY SHIP WAY,"Liberty Ship, Albany, CA 94706, USA",37.8840184,-122.3044786,1
BANWAY,Banway Building,37.8678967,-122.2668872,1
0 UNIT-2 TOWLE,Unit 2 Towle Hall,37.8663429,-122.2546476,1
PAULEY BALLROOM,Martin Luther King Jr Student Union,37.8692195,-122.2596727,1
PIMENTEL HALL,Pimentel Hall,37.8734146,-122.256025,1
735 GOODING WAY,735 Gooding Way,37.8841074,-122.3010568,1
SIGNPOST-14,,,,1
2120 BERKELEY WAY,2120 Berkeley Way,37.8729548,-122.2676293,1
MINOR HALL ADDITION,Minor Hall Addition,37.8713112,-122.2551727,1
0 HAZ MAT FAC,,,,1
LBNL-65,Lawrence Berkeley National Laboratory,37.8754404,-122.2455364,1
BLUM HALL,Blum Hall,37.8750255,-122.2588054,1
0 GAYLEY ROAD,Gayley Rd,37.8739414,-122.2554853,1
0 UNIT-1 CHRISTIAN,Unit 1 Christian Hall,37.8680352,-122.2545825,1
555 OHLONE AVE,555 Ohlone Ave,37.8851975,-122.3034358,1
425 LIBERTY SHIP WAY,"Liberty Ship, Albany, CA 94706, USA",37.8840184,-122.3044786,1
0 CALIFORNIA HALL,California Hall,37.8718399,-122.2603363,1
LBNL-67,Lawrence Berkeley National Laboratory,37.8754404,-122.2455364,1
HEARST MINING CIR,Hearst Mining Circle,37.8735547,-122.2570583,1
UVA-170,University Village,37.8849256,-122.3010808,1
2151 BERKELEY WAY,2151 Berkeley Way,37.87385,-122.266984,1
1995 UNIVERSITY,1995 University Ave,37.8722046,-122.2712868,1
BANCROFT/DANA,Bancroft Way & Dana St,37.868458,-122.261913,1
0 ETCHEVERRY HALL,Etcheverry Hall,37.8756626,-122.2592805,1
CHANNING/BOWDITCH APTS,Channing-Bowditch Apartments,37.8673656,-122.2573096,1
UVA-153,University Village,37.8849256,-122.3010808,1
RAMONAS CAFE,Ramona’s Cafe,37.8707352,-122.254894,1
LBNL-26,Lawrence Berkeley National Laboratory,37.8754404,-122.2455364,1
747 RED OAK AVE,747 Red Oak Ave,37.8830619,-122.3025834,1
WILLARD PARK,Willard Park,37.8610996,-122.2565283,1
2420 BOWDITCH ST,2420 Bowditch St,37.866835,-122.2564653,1
UCSF,,,,1
405 RED OAK AVE,405 Red Oak Ave,37.8830619,-122.3025834,1
SIGNPOST-15,,,,1
600 GOODING WAY,600 Gooding Way,37.8841439,-122.3014511,1
SPIEKER POOL,Spieker Pool,37.8688137,-122.262123,1
2311 BOWDITCH ST,2311 Bowditch St,37.868544,-122.25651,1
FOOTHILL-7,Foothill Building 7,37.8743169,-122.2543218,1
0 NORTHGATE HALL,North Gate Hall,37.8749998,-122.2596684,1
2427 DWIGHT WAY,2427 Dwight Way,37.8651852,-122.2594926,1
CKC-17,Clark Kerr Campus Building 17,37.8638051,-122.24936,1
UVA COMMUNITY CENTER,University Village,37.8849256,-122.3010808,1
UVA-147,University Village,37.8849256,-122.3010808,1
0 REC SPRT FAC,Recreational Sports Facility,37.867412,-122.262819,1
WEST CIRCLE,West Circle,37.8722822,-122.2635248,1
2334 BOWDITCH,2334 Bowditch St,37.8669519,-122.2565397,1
UVA-122,University Village,37.8849256,-122.3010808,1
WARREN HALL,Earl Warren Hall,37.8744113,-122.2669733,1
2401 BANCROFT,2401 Bancroft Way,37.8686741,-122.2611621,1
LUDWIGS FOUNTAIN,Ludwig's Fountain,37.8695676,-122.2594891,1
530 KINKEAD WAY,530 Kinkead Way,37.8836953,-122.3025072,1
0 HEARST FIELD ANNEX,Hearst Field Annex,37.8694693,-122.2581587,1
540 RED OAK AVE,540 Red Oak Ave,37.8830619,-122.3025834,1
515 WEST END WAY,West End Way,37.8838859,-122.3050819,1
CKC-19,Clark Kerr Campus Building 19,37.8638051,-122.24936,1
DURANT/TELEGRAPH,Durant Ave & Telegraph Ave,37.867819,-122.258995,1
JONES CHILD CARE,Harold E. Jones Child Study Center,37.8657395,-122.264105,1
ON CAMPUS,Campus,37.8718992,-122.2585399,1
2536 CHANNING WAY/ANNA HEAD,Anna Head Alumnae Hall,37.8663273,-122.2575953,1
SOUTH STADIUM LOT,South Stadium Lot,37.8712097,-122.2502811,1
0 STEPHENS HALL,Stephens Hall,37.8712636,-122.2575921,1
BART,Downtown Berkeley BART Station,37.8700346,-122.2680138,1
0 CORY HALL,Cory Hall,37.8750364,-122.2573242,1
KLEEBERGER LOT,Kleeberger Lot,37.872979,-122.253961,1
0 PIMENTEL HALL,Pimentel Hall,37.8734146,-122.256025,1
UVA-166,University Village,37.8849256,-122.3010808,1
2220 BANCROFT WAY,2220 Bancroft Way,37.8678955,-122.2654129,1
0 UNIT-1 SLOTTMAN,Unit 1 Slottman Hall,37.867555,-122.2552224,1
2607 HEARST AV,2607 Hearst Ave,37.87569,-122.2578738,1
LBNL-54,Lawrence Berkeley National Laboratory,37.8754404,-122.2455364,1
RIMWAY ROAD,Stadium Rim Way,37.8722193,-122.2512802,1
2080 ADDISON ST,2080 Addison St,37.8708571,-122.2687878,1
OAKLAND SCIENCE FACILITY,Oakland Science Facility,37.808281,-122.267534,1
0 KOSHLAND HALL,Koshland Hall,37.8739448,-122.2649042,1
1750 ARCH ST,"1750 Arch St, Berkeley, CA 94709, USA",37.876573,-122.264576,1
1950 ADDISON,"1950 Addison St, Berkeley, CA 94704, USA",37.870451,-122.271731,1
2130 CENTER ST,"2130 Center St, Berkeley, CA 94704, USA",37.8702058,-122.2670882,1
2500 DWIGHT WAY,"2500 Dwight Way, Berkeley, CA 94704, USA",37.8651228,-122.2584226,1
2400 DURANT AV,"2400 Durant Ave, Berkeley, CA 94720, USA",37.8673847,-122.2609578,1
2415 BOWDITCH ST,"2415 Bowditch St, Berkeley, CA 94704, USA",37.8670289,-122.2561598,1
DURANT TELE,Durant Ave & Telegraph Ave,37.867819,-122.258995,1
0 STANLEY HALL,Stanley Hall,37.8740002,-122.2560525,1
HASTE/TELE,Telegraph Ave & Haste Ave,37.8660242,-122.258627,1
0 HAVILAND HALL,Haviland Hall,37.8737118,-122.2610484,1
2619 DWIGHT WAY,2619 Dwight Way,37.865752,-122.255835,1
JACKSON HOUSE,Ida Louise Jackson Graduate House,37.8681835,-122.2541189,1
CKC-16,Clark Kerr Campus Building 16,37.8638051,-122.24936,1
485 OHLONE AVE,485 Ohlone Ave,37.8849307,-122.3043907,1
HASTE/TELEGRAPH,Telegraph Ave & Haste Ave,37.8660242,-122.258627,1
67 CANYON RD,67 Canyon Rd,37.870802,-122.247738,1
UPPER FIRE TRAIL,Upper Fire Trail,37.8699656,-122.2359028,1
GAYLEY ROAD,Gayley Rd,37.8739414,-122.2554853,1
2600 RIDGE ROAD,Cloyne Court Hotel,37.8760914,-122.2578465,1
2515 CHANNING WAY,2515 Channing Way,37.8670175,-122.2581091,1
2200 BANCROFT,2200 Bancroft Way,37.867428,-122.2655774,1
0 RFS-400,,,,1
0 MULFORD HALL,Mulford Hall,37.8726096,-122.2644811,1
1601 ALLSTON WAY,1601 Allston Way,37.8683105,-122.2786281,1
UVA-141,University Village,37.8849256,-122.3010808,1
2535 CHANNING/BOWDITCH APTS,Channing-Bowditch Apartments,37.8673656,-122.2573096,1
UNIT-2 LOADING DOCK,Unit 2 Loading Dock,37.8663429,-122.2546476,1
2240 PIEDMONT AV,2240 Piedmont Ave,37.8701932,-122.2524846,1
2500 DURANT,2500 Durant Ave,37.867621,-122.258655,1
3300 REGATTA BLVD,"Berkeley, CA, USA",37.9177568,-122.338923,1
WICKSON BRIDGE,"Wickson Rd, Berkeley, CA 94709, USA",37.8727721,-122.2626207,1
HASTE TELE,Telegraph Ave & Haste Ave,37.8660242,-122.258627,1
0 SIMPSON CENTER,Simpson Center,37.870171,-122.251807,1
0 FENWICK WEAVERS,Fenwick Weavers Village,37.8655988,-122.2605589,1
DWIGHT/BOWDITCH,Dwight Way & Bowditch St,37.8654206,-122.256143,1
0 MARCHANT BLDG,Marchant Building,37.850243,-122.2875397,1
DURANT/BOWDITCH,Durant Ave & Bowditch St,37.8681063,-122.256703,1
UVA-154,University Village,37.8849256,-122.3010808,1
LBNL-69,Lawrence Berkeley National Laboratory,37.8754404,-122.2455364,1
0 UNIT-3 IDA SPROUL,Unit 3 Ida Sproul Hall,37.8671335,-122.260512,1
0 FRANK SCHLESSINGER WAY,"Frank Schlessinger Way, Berkeley, CA, USA",37.8705786,-122.2638617,1
JACKSON/MONROE,,,,1
UVA-145,University Village,37.8849256,-122.3010808,1
0 MENS FACULTY CLUB,Men’s Faculty Club,37.8716886,-122.255906,1
CKC-24,Clark Kerr Campus Building 24,37.8638051,-122.24936,1
2195 HEARST AV,"2195 Hearst Ave, Berkeley, CA 94720, USA",37.8744106,-122.2669389,1
1111 FRANKLIN,"1111 Franklin St, Berkeley, CA 94702, USA",37.8762911,-122.2861179,1
420 KULA GULF WAY,"Kula Gulf Way, Albany, CA 94706, USA",37.8841356,-122.3036352,1
0 HILGARD HALL,"Hilgard Hall, Berkeley, CA 94720, USA",37.8733109,-122.2634045,1
0 BECHTEL HALL,"Bechtel Engineering Center, Berkeley, CA 94709, USA",37.8741858,-122.258188,1
UNIT-1 LOADING DOCK,Unit 1 Loading Dock,37.867555,-122.2552224,1
EAST GATE,,,,1
HEARST/EUCLID,Hearst Ave & Euclid St,37.87493,-122.260552,1
UVA-151,University Village,37.8849256,-122.3010808,1
1110 JACKSON STREET,"1110 Jackson St, Albany, CA 94706, USA",37.8836658,-122.3002535,1
UVA-152,University Village,37.8849256,-122.3010808,1
RUGBY FIELD HOUSE,Rugby Field House,37.8711896,-122.248727,1
735 WEST END WAY,"West End Way, Albany, CA 94706, USA",37.8838859,-122.3050819,1
400 OHLONE AVE,"400 Ohlone Ave, Albany, CA 94706, USA",37.8847846,-122.3044851,1
0 HILDEBRAND HALL,Hildebrand Hall,37.8725358,-122.2557257,1
LBNL-23,Lawrence Berkeley National Laboratory,37.8754404,-122.2455364,1
0 EDWARDS TRACK,Edwards Track,37.8690062,-122.2648111,1
PROSPECT COURT LOT,Prospect Court Lot,37.8695721,-122.2501565,1
RFS-201,,,,1
RFS,,,,1
TELE DURANT,Telegraph Ave & Durant Ave,37.867814,-122.258977,1
0 MORRISON HALL,Morrison Hall,37.870892,-122.2563905,1
RICHMOND,,,,1
1070 JACKSON STREET,"1070 Jackson St, Albany, CA 94706, USA",37.8843984,-122.3001797,1
786 RED OAK AVE,"786 Red Oak Ave, Albany, CA 94706, USA",37.8830619,-122.3025834,1
CHANNING/DANA,Channing Way & Dana St,37.8666209,-122.261086,1
HAAS CLUBHOUSE,Haas Clubhouse,37.8724262,-122.2460458,1
CAMPANILE WAY,Campanile Way,37.8713485,-122.260853,1
LHS VISTA LOT,Lawrence Hall of Science,37.880289,-122.246218,1
FOOTHILL-9,Foothill Building 9,37.8757424,-122.2563979,1
UVA-138,University Village,37.8849256,-122.3010808,1
2537 HASTE ST,Anna Head Alumnae Hall,37.8663273,-122.2575953,1
HUDSON FIELD HOUSE,Hudson Field House,37.8711896,-122.248727,1
VISTA LOT,Vista Lot,37.8807209,-122.2476193,1
SIGNPOST-21,,,,1
BLAKE ESTATES,Blake Garden,37.9136461,-122.284887,1
UCOP,,,,1
EDWARDS FIELD,Edwards Stadium,37.8689946,-122.264837,1
DWIGHT/TELEGRAPH,Telegraph Ave & Dwight Way,37.8651365,-122.2584315,1
BERKELEY WAY,Berkeley Way,37.8718711,-122.2776232,1
1111 FRANKLIN ST,"1111 Franklin St, Berkeley, CA 94702, USA",37.8762911,-122.2861179,1
BIG C TRAIL,Big C Trail,37.874585,-122.249622,1
HELLMAN TENNIS COURTS,Hellman Tennis Center,37.8699713,-122.2651229,1
HAVILAND GROVE,Haviland Grove,37.873733,-122.261592,1
UVA-167,University Village,37.8849256,-122.3010808,1
UNIT-3 DINING,Unit 3 Dining,37.8664916,-122.2596211,1
BERKELEY CA,,,,1
LBNL-48,Lawrence Berkeley National Laboratory,37.8754404,-122.2455364,1
2427 DWIGHT,2427 Dwight Way,37.8651852,-122.2594926,1
2415 DWIGHT WAY,2415 Dwight Way,37.8651311,-122.2602336,1
2475 TELEGRAPH AV,2475 Telegraph Ave,37.865602,-122.258282,1
0 STRAWBERRY REC CENTER,Strawberry Canyon Center,37.8714271,-122.247278,1
LOWER FIRE TRAIL,Lower Fire Trail,37.8715191,-122.2415075,1
2121 ALLSTON,2121 Allston Way,37.8697676,-122.2668361,1
UVA-119,University Village,37.8849256,-122.3010808,1
BAN TELE,"Berkeley, CA, USA",37.8715926,-122.272747,1
RFS-400,,,,1
660 KINKEAD WAY,"660 Kinkead Way, Albany, CA 94706, USA",37.8836953,-122.3025072,1
OXFORD/ADDISON,Addison St & Oxford St,37.871293,-122.266549,1
SIGNPOST-18,,,,1
1020 JACKSON STREET,"1020 Jackson St, Albany, CA 94706, USA",37.8863878,-122.3005167,1
UVA-111,University Village,37.8849256,-122.3010808,1
2400 BANCROFT WAY,2400 Bancroft Way,37.8682101,-122.2611743,1
LBNL-77,Lawrence Berkeley National Laboratory,37.8754404,-122.2455364,1
0 MCLAUGHLIN HALL,McLauglin Hall,37.8738011,-122.2589949,1
0 GOLDMAN SCHOOL PUBLIC POLICY,Goldman School of Public Policy,37.8757535,-122.2578444,1
MEMORIAL STADIUM TRAILER PARK,Memorial Stadium Trailer Park,37.871504,-122.251115,1
LBNL-71,Lawrence Berkeley National Laboratory,37.8754404,-122.2455364,1
0 SPROUL HALL,Lower Sproul Plaza,37.8691454,-122.2602313,1
0 BOWLES HALL,Bowles Hall,37.8733996,-122.2530226,1
ASUC ART STUDIO,ASUC Art Studio,37.86976,-122.260051,1
AT&T PARK,,,,1
UVA-121,University Village,37.8849256,-122.3010808,1
BEVERLY CLEARY,"Beverly Cleary Hall, Berkeley, CA 94704, USA",37.866433,-122.259553,1
2521 DURANT,2521 Durant Ave,37.8683129,-122.2581296,1
805 KINKEAD WAY,"805 Kinkead Way, Albany, CA 94706, USA",37.8837446,-122.3022741,1
OFF CAMPUS,,,,1
2500 BANCROFT WAY,2500 Bancroft Way,37.8687157,-122.2591463,1
UVA-164,University Village,37.8849256,-122.3010808,1
PAT BROWNS GRILL,Pat Brown’s,37.873385,-122.264875,1
LBNL-62,Lawrence Berkeley National Laboratory,37.8754404,-122.2455364,1
GIRTON HALL,Girton Hall,37.8723921,-122.2541475,1
HAZ MAT FAC,,,,1
2120 OXFORD ST,2120 Oxford St,37.870862,-122.2660877,1
LBNL-70,Lawrence Berkeley National Laboratory,37.8754404,-122.2455364,1
UVA-150,University Village,37.8849256,-122.3010808,1
UVA-162,University Village,37.8849256,-122.3010808,1
PEPPERTREE LANE,"Berkeley, CA, USA",37.8715926,-122.272747,1
LBNL-31,Lawrence Berkeley National Laboratory,37.8754404,-122.2455364,1
EARL WARREN HALL,Earl Warren Hall,37.8744113,-122.2669733,1
ASUC BOOKSTORE,ASUC Bookstore,37.873385,-122.264875,1
2536 CHANNING WAY,2536 Channing Way,37.8664466,-122.2575343,1
2111 BANCROFT WAY,Banway Building,37.8678967,-122.2668872,1
0 UNIVERSITY HALL,University Hall,37.8719085,-122.2664944,1
865 KINKEAD WAY,865 Kinkead Way,37.8836953,-122.3025072,1
LBNL-50,Lawrence Berkeley National Laboratory,37.8754404,-122.2455364,1
CHANNING/PIEDMONT,Piedmont Avenue & Channing Way,37.867478,-122.251992,1
0 VALLEY LSB,Valley Life Sciences Building,37.8715305,-122.2620337,1
WEST GATE,West Gate,37.870184,-122.265755,1
2425 ATHERTON,2425 Atherton St,37.8657526,-122.264156,1
CHANNING/BOWDITCH,Channing Way & Bowditch St,37.8672098,-122.2565217,1
670 KULA GULF WAY,"Kula Gulf Way, Albany, CA 94706, USA",37.8841356,-122.3036352,1
WOMENS FACULTY CLUB,Women’s Faculty Club,37.8720206,-122.254945,1
2439 DURANT,2439 Durant Ave,37.8680771,-122.2596264,1
0 MOSES HALL,Moses Hall,37.8710551,-122.2578523,1
BECHTEL TERRACE,Bechtel Terrace,37.8741858,-122.258188,1
UVA-158,University Village,37.8849256,-122.3010808,1
PFA,Pacific Film Archive Theater,37.8692103,-122.257642,1
LBNL-88,Lawrence Berkeley National Laboratory,37.8754404,-122.2455364,1
SHATTUCK/CENTER,Center St & Shattuck Ave,37.87012,-122.26796,1
CKC-21,Clark Kerr Campus Building 21,37.8638051,-122.24936,1
1995 UNIVERSITY AVE,1995 University Ave,37.8722046,-122.2712868,1
SPRINGER GATEWAY,Springer Gateway,37.8717543,-122.2651875,1
NEW YORK,,,,1
SACRAMENTO,,,,1
715 KINKEAD WAY,715 Kinkead Way,37.8836953,-122.3025072,1
UVA-102,University Village,37.8849256,-122.3010808,1
3040 SMYTH RD,3040 Smyth Rd,37.867341,-122.245683,1
UVA-146,University Village,37.8849256,-122.3010808,1
BANCROFT/FULTON,Bancroft St & Fulton St,37.8675781,-122.2651172,1
UVA-124,University Village,37.8849256,-122.3010808,1
B/T,,,,1
DURANT/DANA,Durant Ave & Dana St,37.867422,-122.261416,1
DANA CT,"Dana St, Berkeley, CA, USA",37.8608143,-122.2599172,1
HASTE DANA,Dana St & Haste Ave,37.865815,-122.260993,1
980 OHLONE AVE,"980 Ohlone Ave, Albany, CA 94706, USA",37.8856482,-122.3005063,1
EL CERRITO,,,,1
2481 HEARST AVE,2481 Hearst Ave,37.8750743,-122.2605792,1
3200 REGATTA,,,,1
LBNL-6,Lawrence Berkeley National Laboratory,37.8754404,-122.2455364,1
625 WEST END WAY,West End Way,37.8838859,-122.3050819,1
UVA-148,University Village,37.8849256,-122.3010808,1
BOWDITCH/HASTE,Haste St & Bowditch St,37.8663193,-122.256343,1
2100 CHANNING WAY,2100 Channing Way,37.865799,-122.266847,1
TELE/DURANT,Telegraph Ave & Durant Ave,37.867814,-122.258977,1
CHANNING/TELEGRAPH,Telegraph Av & Channing Way,37.866914,-122.2587858,1
2610 CHANNING,2610 Channing Way,37.8670799,-122.2556761,1
730 KINKEAD WAY,"730 Kinkead Way, Albany, CA 94706, USA",37.8836953,-122.3025072,1
2500 HASTE ST,2500 Haste St,37.8660122,-122.2585881,1
GREEK THEATER THEATER,Greek Theatre,37.8735759,-122.254472,1
0 CLOYNE COURT,Cloyne Court Hotel,37.8760914,-122.2578465,1
CLAREMONT HOTEL,Claremont Hotel & Spa,37.8596523,-122.2419023,1
RIM/CENTENNIAL,Centennial Dr & Stadium Rim Way,37.871426,-122.249641,1
BANCROFT TELEGRAPH,Telegraph Ave & Bancroft Way,37.8687287,-122.2591604,1
335 OHLONE AVE,335 Ohlone Ave,37.8849492,-122.305112,1
0 BECHTEL CENTER,Bechtel Engineering Center,37.8741858,-122.258188,1
580 OHLONE AVE,"580 Ohlone Ave, Albany, CA 94706, USA",37.8847221,-122.3047574,1
2500 DURANT AV,2500 Durant Ave,37.867621,-122.258655,1
2333 COLLEGE AVE,2333 College Ave,37.868049,-122.253988,1
UVA-160,University Village,37.8849256,-122.3010808,1
DURANT/PIEDMONT,Piedmont Ave & Durant Ave,37.8686768,-122.252275,1
MLK JR WAY,M.L.K. Jr Way,37.8652607,-122.2723156,1
1950 UNIVERSITY AV,1950 University Ave,37.871196,-122.271719,1
DUR/TELE,Durant Ave & Telegraph Ave,37.867814,-122.258977,1
TIGHTWAD HILL,Tightwad Hill,37.87224,-122.2497263,1
DWI TELE,Dwight Way & Telegraph Ave,37.8651365,-122.258432,1
OBSERVATORY HILL,Observatory Hill,37.8742567,-122.2606032,1
TELE/CHANNING,Telegraph Ave & Channing Way,37.866914,-122.258786,1
585 RED OAK AVE,585 Red Oak Ave,37.8832158,-122.3026332,1
1050 MONROE STREET,1050 Monroe St,37.8842933,-122.2987097,1
675 KULA GULF WAY,"Kula Gulf Way, Albany, CA 94706, USA",37.8841356,-122.3036352,1
TELE/BLAKE,Telegraph Ave & Blake St,37.8641557,-122.258527,1
DANA HASTE,Dana St & Haste St,37.865815,-122.260993,1
TELE/CHANN,Telegraph Ave & Channing Way,37.866914,-122.258786,1
EVANS FIELD,Evans Diamond,37.8694258,-122.263365,1
2367 TELEGRAPH AV,2367 Telegraph Ave,37.8674341,-122.2588098,1
0 RFS-445,,,,1
0 BIRGE HALL,Birge Hall,37.8722322,-122.2571898,1
LBNL-2,Lawrence Berkeley National Laboratory,37.8754404,-122.2455364,1
LBNL-46,Lawrence Berkeley National Laboratory,37.8754404,-122.2455364,1
SMYTH HOUSE,Smyth House,37.8671099,-122.2476822,1
1005 6TH STREET,1005 6th St,37.8829339,-122.3022521,1
2600 HEARST AV,2600 Hearst Ave,37.8754729,-122.25709,1
1000 6TH STREET,1000 Sixth St,37.8828311,-122.3025942,1
67 CANYON,67 Canyon Rd,37.870802,-122.247738,1
UVA SHOP,,,,1
2251 COLLEGE AV,2251 College Ave,37.8692877,-122.254584,1
2224 PIEDMONT AV,2224 Piedmont Ave,37.870984,-122.253046,1
2395 PIEDMONT,2395 Piedmont Ave,37.868105,-122.251502,1
555 OHLONE,555 Ohlone Ave,37.8851975,-122.3034358,1
DURANT DANA,Durant Ave & Dana St,37.867422,-122.261416,1
UVA-100,University Village,37.8849256,-122.3010808,1
BANC/TELE,Bancroft Ave & Telegraph Ave,37.8687287,-122.25916,1
0 GIAUQUE LAB,,,,1
BANCROFT/COLLEGE,Bancroft Way & College Ave,37.8692972,-122.2546034,1
32083 ALVARADO NILES UNION CITY,,,,1
MSRI LOT,MSRI Parking Lot,37.8808117,-122.2457434,1
CHAN/BOW,Channing Way & Bowditch St,37.8672098,-122.256522,1
CKC HORSESHOE,Clark Kerr Horseshoe,37.8640597,-122.2499408,1
UVA-169,University Village,37.8849256,-122.3010808,1
UC CAMPUS,,,,1
CKC-14,Clark Kerr Campus Building 14,37.8638051,-122.24936,1
0 MINOR HALL ADDITION,Minor Hall Addition,37.8713112,-122.2551727,1
UVA-101,University Village,37.8849256,-122.3010808,1
0 HEARST GYM,Hearst Memorial Gymnasium,37.869336,-122.257464,1
2601 TELEGRAPH AV,2601 Telegraph Ave,37.86299,-122.2583756,1
1040 JACKSON ST,1040 Jackson St,37.8845112,-122.3002149,1
UVA-165,University Village,37.8849256,-122.3010808,1
525 RED OAK AVE,"525 Red Oak Ave, Albany, CA 94706, USA",37.8830619,-122.3025834,1
CHAN CIR,Channing Circle,37.867791,-122.251912,1
TELE HASTE,Telegraph Ave & Haste Ave,37.8660242,-122.258627,1
2400 TELEGRAPH AV,2400 Telegraph Ave,37.8674642,-122.2594219,1
LBNL-51,Lawrence Berkeley National Laboratory,37.8754404,-122.2455364,1
2415 FERNWALD DR,2415 Fernwald Rd,37.86696,-122.2475982,1
WITTER LOT,Witter Lot,37.8711896,-122.248727,1
APD,,,,1
PIEDMONT/DURANT,Piedmont Ave & Durant Ave,37.8686768,-122.252275,1
TILDEN PARK,Tilden Park,37.9005805,-122.2560632,1
300 LAKESIDE,,,,1
2150 KITTRIDGE,2150 Kittredge St,37.8684839,-122.2668623,1
10 GIANNINI HALL,Giannini Hall,37.8735349,-122.2622986,1
298 OHLONE AVE,298 Ohlone Ave,37.8846416,-122.305156,1
OXFORD/CENTER,Oxford St & Center St,37.8705998,-122.265931,1
2510 DURANT,2510 Durant Ave,37.867529,-122.258374,1
2484 SHATTUCK,2484 Shattuck Ave,37.864112,-122.267973,1
0 UVA COMMUNITY CENTER,,,,1
CHANNING/TELE,Telegraph Ave & Channing way,37.866914,-122.258786,1
BANCROFT BOWDITCH,Bancroft Way & Bowditch St,37.869003,-122.256899,1
415 20TH ST,,,,1
SATHER LANE,Sather Lane,37.8676959,-122.2599381,1
LBNL-66,Lawrence Berkeley National Laboratory,37.8754404,-122.2455364,1
2200 PIEDMONT AV,2200 Piedmont Ave,37.8725495,-122.2537631,1
UVA-103,University Village,37.8849256,-122.3010808,1
DWIGHT/REGENT,Dwight Way & Regent St,37.8652063,-122.25779,1
CKC LOT A,Clark Kerr Track,37.8648156,-122.2457136,1
UVA-120,University Village,37.8849256,-122.3010808,1
3030 SMYTH RD,3030 Smyth Rd,37.867396,-122.246096,1
2439 DURANT AV,2439 Durant Ave,37.8680771,-122.2596264,1
2111 BANCROFT,Banway Building,37.8678967,-122.2668872,1
UVA-123,University Village,37.8849256,-122.3010808,1
755 OHLONE,755 Ohlone Ave,37.8855338,-122.3016485,1
0 DONNER LAB,Donner Laboratory,37.8746569,-122.256513,1
1020 JACKSON,1020 Jackson St,37.8863878,-122.3005167,1
0 CKC,Clark Kerr Campus,37.8648156,-122.2457136,1
2222 BANCROFT WAY,2222 Bancroft Way,37.8679074,-122.2643728,1
SIGNPOST-20,,,,1
DURANT/ELLSWORTH,Durant Ave & Ellsworth St,37.867143,-122.263696,1
2700 HEARST AV,2700 Hearst Ave,37.8754428,-122.2558182,1
SOUTH DR,South Dr,37.8718361,-122.2574026,1
1950 ADDISON ST,1950 Addison St,37.870451,-122.271731,1
0 DOE ANNEX,Doe Annex,37.8722083,-122.259493,1
99999 CLEARY HALL,Beverly Cleary Hall,37.866433,-122.259553,1
MEMORIAL STADIUM RIM WAY,Memorial Stadium Rim Way,37.8712097,-122.2502811,1
BAN/TEL,Telegraph Ave & Bancroft Way,37.8687287,-122.25916,1
LOS ANGELES,,,,1
16 HAVILAND HALL,Haviland Hall,37.8737118,-122.2610484,1
3020 SMYTH RD,3020 Smyth Rd,37.8675787,-122.2462659,1
UVA-143,University Village,37.8849256,-122.3010808,1
BANC ELLS,Bancroft Way & Ellsworth St,37.8681263,-122.263726,1
5885 HOLLIS ST,5885 Hollis St,37.8405997,-122.2898759,1
2400 CHANNING,2400 Channing Way,37.8667806,-122.2589796,1
2722 BANCROFT,2722 Bancroft Way,37.8691912,-122.2536323,1
LBNL-56,Lawrence Berkeley National Laboratory,37.8754404,-122.2455364,1
UC DAVIS,,,,1
0 SILVER LAB,,,,1
6TH/RED OAK,,,,1
GOLDEN BEAR REST,Golden Bear Cafe,37.8696075,-122.259606,1
2300 BANCROFT,2300 Bancroft Way,37.867988,-122.2630247,1
2500 BANCROFT,2500 Bancroft Way,37.8687157,-122.2591463,1
40 GIANNINI HALL,Giannini Hall,37.8735349,-122.2622986,1
0 STERN HALL,Stern Hall,37.8750195,-122.2555552,1
2222 PIEDMONT AV,2222 Piedmont Ave,37.8711648,-122.2530933,1
BOALT LAW,Boalt Law,37.8698309,-122.2538096,1
SAN DIEGO,,,,1
UVA-163,University Village,37.8849256,-122.3010808,1
2520 CHANNING WAY,Maximino Martinez Commons,37.8666016,-122.2577573,1
BOWDITCH DURANT,Durant Ave & Bowditch St,37.8681063,-122.256703,1
0 STRAWBERRY CENTER,Strawberry Canyon Center,37.8730075,-122.24429,1
2130 CENTER,2130 Center St,37.8702058,-122.2670882,1
CAFE STRADA,Caffe Strada,37.869154,-122.254792,1
2241 CHANNING WAY,2241 Channing Way,37.86629,-122.2638001,1
UVA-155,University Village,37.8849256,-122.3010808,1
STRAWBERRY GATE,,,,1
CHANNING BOWDITCH,Channing Way & Bowditch St,37.8673656,-122.2573096,1
HAYWARD,,,,1
CKC-5A TLR,,,,1
2400 HEARST AV,"2400 Hearst Ave, Berkeley, CA 94709, USA",37.8747027,-122.2622493,1
HSB,,,,1
UVA-140,University Village,37.8849256,-122.3010808,1
1123 JACKSON STREET,1123 Jackson St,37.8838515,-122.2998815,1
TOP DOG LOT,Top Dog Lot,37.8677878,-122.257398,1
0 MINOR HALL,Minor Hall,37.8714283,-122.2547013,1
GARDNER STACKS,Gardner Stacks,37.8722083,-122.259493,1
2227 PIEDMONT AV,2227 Piedmont Ave,37.8707017,-122.2515901,1
UVA-116,University Village,37.8849256,-122.3010808,1
405 RED OAK,405 Red Oak Ave,37.8830619,-122.3025834,1
2467 TELEGRAPH AV,2467 Telegraph Ave,37.8656702,-122.2583317,1
2498 PIEDMONT,2498 Piedmont Ave,37.8661227,-122.2517669,1
BANCROFT/PIEDMONT,Bancroft Way & Piedmont Ave,37.8695901,-122.2523046,1
2614 DWIGHT WAY,2614 Dwight Way,37.8653309,-122.2556223,1
SPORTS LANE,,,,1
2728 BANCROFT,2728 Bancroft Way,37.869022,-122.253259,1
KROEBER FOUNTAIN,Kroeber Fountain,37.869853,-122.2551518,1
BLUM CENTER,Blum Center for Developing Economies,37.8748836,-122.2591001,1
UVA-159,University Village,37.8849256,-122.3010808,1
RIM GAYLEY,Gayley Rd & Stadium Rim Way,37.8725667,-122.2537582,1
2434 WARRING,2434 Warring St,37.866621,-122.250868,1
BOWDITCH/DURANT,Durant Ave & Bowditch St,37.8681063,-122.2567029,1
0 SUTARDJA DAI HALL,Sutardja Dai Hall,37.8748643,-122.2582871,1
142 DWINELLE HALL,Dwinelle Hall,37.8707002,-122.2605518,1
2345 COLLEGE,2345 College Ave,37.8677739,-122.2540469,1
BOTANICAL GARDENS LOT,Botanical Garden Lot,37.875599,-122.239157,1
BANCROFT / TELEGRAPH,Telegraph Ave & Bancroft Way,37.8687287,-122.2591604,1
SAN LEANDRO,,,,1
TELEGRAPH AVE,,,,1
1608 4TH STREET,,,,1
0 JACKSON HOUSE,Ida Louise Jackson Graduate House,37.868049,-122.253988,1
2324 PIEDMONT,2324 Piedmont Ave,37.8688331,-122.2524973,1
UVA-149,University Village,37.8849256,-122.3010808,1
2400 BANCROFT,2400 Bancroft Way,37.8682101,-122.2611743,1
OCTAGON BR,,,,1
0 CHANNING/BOWDITCH APTS,Channing-Bowditch Apartments,37.8673656,-122.2573096,1
0 BANWAY,,,,1
COLLEGE/HASTE,College Ave & Haste St,37.8665789,-122.2540827,1
0 WOMENS FACULTY CLUB,Women’s Faculty Club,37.8720206,-122.2549452,1
TELE S HASTE,Telegraph Ave & Haste St,37.8660242,-122.2586271,1
JACKSON/BUCHANON,,,,1
1950 UNIVERSITY,1950 University Ave,37.871196,-122.271719,1
OXFORD CENTER,,,,1
RED OAK/6TH,,,,1
WEST CIR,West Circle,37.871632,-122.265437,1
TOP DOG,Top Dog,37.8428352,-122.2552467,1
2230 SHATTUCK AV,2230 Shattuck,37.8687753,-122.2682844,1
2500 BLK DURANT,,,,1
SAN RAFAEL,,,,1
2340 PIEDMONT,2340 Piedmont Ave,37.868068,-122.25244,1
600 RED OAK AVE,600 Red Oak Ave,37.8830478,-122.3025788,1
ELLSWORTH STRUCTURE,Ellsworth Parking Structure,37.865927,-122.262532,1
3010 SMYTH RD,3010 Smyth Rd,37.867685,-122.2467378,1
2400 WARRING,2400 Warring St,37.867679,-122.251057,1
0 HELLMAN TENNIS COURTS,Hellman Tennis Center,37.8699674,-122.2650203,1
UNIT-3 LOADING DOCK,Unit 3 Loading Dock,37.8671335,-122.2605121,1
605 OHLONE,605 Ohlone Ave,37.8852204,-122.3027025,1
0 FOOTHILL-8,Foothill Building 8,37.874656,-122.254172,1
UVA-115,University Village,37.8849256,-122.3010808,1
CENTER/OXFORD,Center St & Oxford Ln,37.8705998,-122.2659311,1
DURANT/COLLEGE,College Ave & Durant Ave,37.8683469,-122.2544485,1
1952 OXFORD ST,1952 Oxford St,37.87305,-122.266521,1
STONEWALL TRAIL,Stonewall-Panoramic Trail,37.8641781,-122.2417683,1
0 NAVAL ARCH,Naval Architecture Building,37.8750255,-122.2588054,1
WELLMAN COURTYARD,Wellman Courtyard,37.8734001,-122.2628353,1
DWIGHT BOWDITCH,Dwight Way & Bowditch St,37.8654206,-122.2561427,1
2310 PIEDMONT,2310 Piedmont Ave,37.869027,-122.252588,1
2600 CHANNING,2600 Channing,37.8672126,-122.256499,1
TELE CHAN,Telegraph Av & Channing Way,37.866914,-122.2587858,1
0 ZELLERBACH PLAY,Zellerbach Playhouse,37.8693019,-122.2613364,1
2500 HEARST AVE,2500 Hearst Ave,37.8750353,-122.2601407,1
CKC-5,Clark Kerr Campus Building 5,37.8649634,-122.2493737,1
HASTE/BOWDITCH,Haste St & Bowditch St,37.8663193,-122.2563434,1
UC RIVERSIDE,,,,1
STRAWBERRY CANYON RSCH,Strawberry Canyon Center,37.872583,-122.246369,1
UNIT-3 UNIT-3 NORTON,Unit 3 Norton Hall,37.8671335,-122.2605121,1
2224 SHATTUCK AV,2224 Shattuck Ave,37.8687574,-122.2682,1
BOWDITCH DWIGHT,Dwight Way & Bowditch St,37.8654206,-122.2561427,1
UNIT 3,Unit 3,37.8671335,-122.2605121,1
CKC-20,Clark Kerr Campus Building 20,37.863119,-122.24523,1
2700 BANCROFT,2700 Bancroft Way,37.869081,-122.2543492,1
IFO KIPS,Kip’s Restaurant,37.8679354,-122.259604,1
0 UVA OFFICE,University Village,37.8845615,-122.3016065,1
TELE / PARKER,Telegraph Ave & Parker St,37.8632728,-122.258729,1
2400 HEARST,2400 Hearst Ave,37.8747027,-122.2622493,1
BAN BOW,Bancroft Way & Bowditch St,37.8690034,-122.256899,1
2481 HEARST AV,2481 Hearst Ave,37.8750743,-122.2605792,1
LBNL-50B,Lawrence Berkeley National Laboratory,37.8754404,-122.2455364,1
2600 HEARST AVE,2600 Hearst Ave,37.8754729,-122.25709,1
RFS-420,,,,1
COLLEGE/DWIGHT,Dwight Way & College Ave,37.865707,-122.253905,1
TELE DWI,Telegraph Ave & Dwight Way,37.8651365,-122.258432,1
DURANT PIEDMONT,Piedmont Ave & Durant Ave,37.8686768,-122.252275,1
KIPS,Kip’s Restaurant,37.8679354,-122.259604,1
UVA-129,University Village,37.8845615,-122.3016065,1
LAKE TAHOE,,,,1
DOWN LOW,,,,1
UNIT-3 UNIT-3 PRIESTLY,Unit 3 Priestly Hall,37.8671335,-122.260512,1
HASTE/DANA,Haste St & Dana St,37.8657305,-122.260915,1
MANVILLE APTS LOT,Manville Apartments Lot,37.865799,-122.266847,1
2000 CENTER ST,2000 Center St,37.8698579,-122.2702812,1
DWI PIED,Dwight Way & Piedmont Ave,37.8659016,-122.251239,1
2721 CHANNING WAY,2721 Channing Way,37.8678684,-122.2532658,1
0 FOOTHILL-6,Foothill Building 6,37.8743169,-122.2543218,1
2534 DURANT AV,2534 Durant Ave,37.8677208,-122.2573837,1
NEW JERSEY,,,,1
ALBANY,,,,1
COLLEGE/CHANNING,College Ave & Channing Way,37.8674951,-122.254249,1
2230 DWIGHT WAY,"2230 Dwight Way, Berkeley, CA 94704, USA",37.8641895,-122.2635473,1
2300 BLK TELE,,,,1
FOOTHILL-3,Foothill Building 3,37.8743169,-122.2543218,1
TELE PARKER,Telegraph Ave & Parker St,37.8632728,-122.258729,1
A & E,A & E,37.870165,-122.2587747,1
BOW/HASTE,Haste St & Bowditch St,37.8663193,-122.256343,1
DURANT / TELE,Telegraph Ave & Durant Ave,37.867814,-122.2589767,1
CAFE MILANO,Cafe Milano,37.868604,-122.258527,1
BANCROFT/BOWDITCH,Bancroft Way & Bowditch St,37.869003,-122.256899,1
BAN W TELE,Telegraph Ave & Bancroft Way,37.8687287,-122.25916,1
TELE CHANNING,Telegraph Av & Channing Way,37.866914,-122.258786,1
SIGNPOST-13,,,,1
2302 PIEDMONT AV,2302 Piedmont Ave,37.869302,-122.252599,1
CHANNING/SHATTUCK,Shattuck Ave & Channing Way,37.8657799,-122.2676369,1
STAR OF DAVID,,,,1
BANC E DANA,Bancroft Way & Dana St,37.8684357,-122.26146,1
TELEGRAPH/CHANNING,Telegraph Av & Channing Way,37.866914,-122.258786,1
SURGE BLDG,,,,1
RUSSELL TREE FARM,,,,1
2300 TELEGRAPH AV,2300 Telegraph Ave,37.8689291,-122.2591921,1
BANCROFT / COLLEGE,Bancroft Way & College Ave,37.8692972,-122.2546034,1
MULTI USE LOT,,,,1
SHATTUCK/KITTRIDGE,Shattuck Ave & Kittredge St,37.868497,-122.2678,1
HEARST W/GAYLEY,Hearst Ave & Gayley Rd,37.8755274,-122.256812,1
VACAVILLE,,,,1
DUBLIN,,,,1
WICKSON GATE,Wickson Gate,37.8727721,-122.2626207,1
2375 TELEGRAPH AV,2375 Telegraph Ave,37.8673503,-122.2586188,1
2500 HEARST,2500 Hearst Ave,37.8750225,-122.260132,1
SHATTUCK/KITTREDGE,Shattuck Ave & Kittredge St,37.868192,-122.26799,1
CAFE MED,Caffe Mediterraneum,37.865588,-122.258371,1
LBNL-65A,Lawrence Berkeley National Laboratory,37.8754404,-122.2455364,1
0 RFS-450,,,,1
2220 BANCROFT,2220 Bancroft Way,37.8678955,-122.2654129,1
660 KINKEAD,660 Kinkead Way,37.8836953,-122.3025072,1
ANTIOCH,,,,1
LBNL-74,Lawrence Berkeley National Laboratory,37.8754404,-122.2455364,1
2195 HEARST,2195 Hearst Ave,37.8744106,-122.2669389,1
BANC FULT,Bancroft Way & Fulton St,37.8678341,-122.265884,1
BANC DANA,Bancroft Way & Dana St,37.8687152,-122.261493,1
20777 HESPERIAN,,,,1
SOUTH MEMORIAL STADIUM LOT,South Memorial Stadium Lot,37.8702696,-122.250571,1
UVA-114,University Village,37.8849256,-122.3010808,1
MONROE/10TH,,,,1
LBNL-4,Lawrence Berkeley National Laboratory,37.8754404,-122.2455364,1
UVA-126,University Village,37.8849256,-122.3010808,1
CHINA,,,,1
MLK JR WAY JAIL,,,,1
PEOPLE`S PARK,People's Park,37.8658134,-122.2570583,1
AC TRANSIT,,,,1
UVA-113,University Village,37.8849256,-122.3010808,1
DELAWARE SAN PABLO,San Pablo Ave & Delaware St,37.872028,-122.292936,1
UVA-144,University Village,37.8849256,-122.3010808,1
UNIVERSITY HALL WEST LOT,University Hall West Lot,37.8719085,-122.266494,1
LBNL-64,Lawrence Berkeley National Laboratory,37.8754404,-122.2455364,1
TELE DWIGHT,Telegraph Ave & Dwight Way,37.8651365,-122.258432,1
LBNL-72,Lawrence Berkeley National Laboratory,37.8754404,-122.2455364,1
SHATTUCK/UNIVERSITY,Shattuck Ave & University Ave,37.8721732,-122.2678009,1
2080 ADDISON,2080 Addison St,37.8708571,-122.2687878,1
2569 TELEGRAPH AV,2569 Telegraph Ave,37.8639523,-122.2582914,1
UVA-142,University Village,37.8849256,-122.3010808,1
UVA STUDY TR,University Village,37.8849256,-122.3010808,1
UVA-105,University Village,37.8849256,-122.3010808,1
SHATTUCK/BANCROFT,Shattuck Ave & Bancroft Way,37.8675985,-122.2676968,1
UNIVERSITY/MILVIA,University Ave & Milvia St,37.8718087,-122.2707303,1
2600 RIDGE RD,Cloyne Court Hotel,37.8760914,-122.2578465,1
BOW CHAN,Channing Way & Bowditch St,37.8672098,-122.256522,1
GAYLEY/HEARST,Hearst Ave & Gayley Rd,37.8755274,-122.256812,1
2362 BANCROFT,2362 Bancroft Way,37.8681644,-122.2620564,1
FIELDING FIELD,Fielding Field,37.8825165,-122.304904,1
SWTCHGRSTN-1,,,,1
0 TAN HALL,Tan Kah Kee Hall,37.8730955,-122.2563923,1
DUR TELE,Telegraph Ave & Durant Ave,37.867814,-122.258977,1
BAN FUL,Bancroft Way & Fulton St,37.8678341,-122.265884,1
DWI W TELE,Telegraph Ave & Dwight Way,37.8651365,-122.258432,1
LBNL-84,Lawrence Berkeley National Laboratory,37.8754404,-122.2455364,1
0 LIFE SCIENCE ADDITION,Life Sciences Addition,37.8713948,-122.2632527,1
BOSTON,,,,1
0 RFS-280,,,,1
0 LEWIS HALL,Lewis Hall,37.8730663,-122.255193,1
2537 HASTE,Anna Head Alumnae Hall,37.8663273,-122.2575953,1
CHEM GROUP,,,,1
PIEDMONT AV,"Piedmont Ave, Berkeley, CA, USA",37.8640777,-122.2514871,1
HASTE ELLS,Haste St & Ellsworth St,37.8654442,-122.2631606,1
KITTREDGE/SHATTUCK,Shattuck Ave & Kittredge St,37.8684776,-122.2679492,1
2455 TELEGRAPH AVE,2455 Telegraph Ave,37.865869,-122.258288,1
BOW/DWIGHT,Dwight Way & Bowditch St,37.8654206,-122.2561427,1
WICKSON ROAD,Wickson Rd,37.8727721,-122.2626207,1
CARDIAC HILL,,,,1
TELE/DUR,Telegraph Ave & Durant Ave,37.867814,-122.2589767,1
DANA DURANT,Durant Ave & Dana St,37.867422,-122.261416,1
BANCROFT / TELE,Telegraph Ave & Bancroft Way,37.8687287,-122.2591604,1
HARRISON PARK,"Berkeley Skate Park, Harrison St",37.8810195,-122.3035321,1
UVA-109,University Village Apartments,37.8849256,-122.3010808,1
2521 TELEGRAPH AV,2521 Telegraph Ave,37.8646083,-122.2585876,1
2524 DWIGHT WAY,2524 Dwight Way,37.864985,-122.257374,1
2509 HILLEGASS,2509 Hillegass Ave,37.8650504,-122.2562005,1
ADDISON/OXFORD,Oxford St & Addison St,37.8714554,-122.2660395,1
DANA/DURANT,Durant Ave & Dana St,37.8675165,-122.2612739,1
UVA-125,University Village Apartments,37.8849256,-122.3010808,1
I HOUSE LOT,International House Lot,37.869504,-122.251766,1
UNIT 2,Unit 2 Berkeley,37.869504,-122.251766,1
GOLDEN BEAR REC CENTER,Golden Bear Recreation Center,37.8654083,-122.2471799,1
1893 LEROY,1893 Le Roy Ave,37.8754363,-122.2583164,1
UVA-118,University Village Apartments,37.8849256,-122.3010808,1
2610 WARRING,2610 Warring St,37.863612,-122.250583,1
CHAN W BOW,Channing Way & Bowditch St,37.8672098,-122.2565217,1
2431 TELEGRAPH AV,2431 Telegraph Ave,37.8664039,-122.2585789,1
UVA-107,University Village Apartments,37.8849256,-122.3010808,1
LOWER HEARST STRUCTURE,Lower Hearst Parking Structure,37.8751731,-122.2611792,1
TELE/PARKER,Telegraph Ave & Parker St,37.8632728,-122.2587294,1
BANCROFT / DANA,Bancroft Way & Dana St,37.8684357,-122.2614604,1
2493 TELEGRAPH AV,2493 Telegraph Ave,37.8653783,-122.2583943,1
CANYON RD,Canyon Rd,37.8703311,-122.2495002,1
2302 PIEDMONT,2302 Piedmont Ave,37.869302,-122.252599,1
1111 BROADWAY,,,,1
HASTE E TELE,Telegraph Ave & Haste St,37.866293,-122.25861,1
HIGHLAND HOSPITAL,Highland Hospital,37.7985855,-122.2316522,1
STRAWBERRY CANYON GATE,Strawberry Canyon Gate,37.8730075,-122.24429,1
1051 MONROE,1051 Monroe St,37.8843821,-122.2993269,1
0 UCB ART MUSEUM,UC Berkeley Art Museum,37.868797,-122.2558243,1
ACSO,,,,1
2506 HASTE ST,2506 Haste St,37.865831,-122.25802,1
HILLEGASS/DWIGHT,Dwight Way & Hillegass Ave,37.8653753,-122.2565035,1
COLLEGE DURANT,Durant Ave & College Ave,37.868302,-122.254628,1
WALNUT CREEK,,,,1
TERRACE LOT,Hill Terrace Parking Lot,37.8801972,-122.2458023,1
UVA-117,University Village Apartments,37.8849256,-122.3010808,1
390 WURSTER HALL,Wurster Hall,37.8707352,-122.2548935,1
1936 UNIVERSITY,1936 University Ave,37.8712817,-122.2720796,1
2519 DURANT,2519 Durant Ave,37.868098,-122.2581362,1
DURANT BOWDITCH,Durant Ave & Bowditch St,37.8681063,-122.2567029,1
STERN FIRE LANE,Fire Trail,37.874081,-122.2274564,1
LBNL-70A,Lawrence Berkeley National Laboratory,37.8754404,-122.2455364,1
2340 TELEGRAPH AV,2340 Telegraph Ave,37.8679931,-122.2592389,1
BANC PIED,Bancroft Way & Piedmont Ave,37.869607,-122.252647,1
2600 DURANT AV,2600 Durant Ave,37.867906,-122.256275,1
2427 DWIGHT TRAILER A,,,,1
LEVINE-FRICKE FIELD,Levine-Fricke Field,37.8717179,-122.2474863,1
UVA-110,University Village Apartments,37.8849256,-122.3010808,1
SIGNPOST-28,,,,1
0 SPACESCI ADD,,,,1
HEARST LEROY,Hearst Avenue & Le Roy Avenue,37.875298,-122.25797,1
STANFORD UNIVERSITY,,,,1
RIM AND GAYLEY,Gayley Rd & Stadium Rim Way,37.8725667,-122.2537582,1
DWIGHT/HILLEGASS,Dwight Way & Hillegass Ave,37.8653753,-122.2565035,1
2440 BANCROFT,2440 Bancroft Way,37.8684064,-122.2605113,1
UVA-133,University Village Apartments,37.8849256,-122.3010808,1
JACKSON/OHLONE,Jackson St & Ohlone Ave,37.8857104,-122.3002869,1
SPROUL PLAZA,Sproul Plaza,37.8691454,-122.2602313,1
UVA-136,University Village Apartments,37.8849256,-122.3010808,1
DWIGHT/ELLSWORTH,Dwight Way & Ellsworth St,37.8645391,-122.2629878,1
RED OAK/LIBERTY SHIP WAY,Red Oak Ave & Liberty Ship,37.8831397,-122.3041699,1
BANC/FULTON,Bancroft Way & Fulton St,37.8678341,-122.2658836,1
GRIZZLEY PEAK,Grizzly Peak Gate,37.8774599,-122.2443121,1
2606 BENVENUE,2606 Benvenue Ave,37.8632322,-122.255017,1
REGENT/PARKER,Parker St & Regent St,37.8633594,-122.2576071,1
1040 JACKSON,1040 Jackson St,37.8845112,-122.3002149,1
CENT-RIM,Centennial Dr & Stadium Rim Way,37.8714131,-122.2496351,1
CHILTON ALLEY,Chilton Alley,37.8637106,-122.2595535,1
2310 PROSPECT ST,2310 Prospect St,37.8690568,-122.2504953,1
HEARST/LEROY,Hearst Ave & Le Roy Ave,37.8753352,-122.2583139,1
DWI/REGENT,Dwight Way & Regent St,37.8652063,-122.2577897,1
BANCROFT BARROWS,Bancroft Way & Barrow Lane,37.868811,-122.2589932,1
2110 HASTE ST,2110 Haste St,37.8647852,-122.266873,1
2450 BOWDITCH ST,2450 Bowditch St,37.8663078,-122.2563596,1
DURANT/FULTON,Durant Ave & Fulton St,37.8669493,-122.2657063,1
SERGE BLDG,,,,1
SHATTUCK DURANT,Shattuck Ave & Durant Ave,37.866468,-122.267812,1
1995 UNIVERSITY HALL,University Hall,37.8719085,-122.2664944,1
NORTH CAROLINA,,,,1
BERKELEY BOWL,Berkeley Bowl,37.8570413,-122.2672158,1
2455 TELEGRAPH AV,2455 Telegraph Ave,37.865869,-122.258288,1
SHATT/HASTE,Shattuck Ave & Haste St,37.8648936,-122.2674117,1
DUR-BOWD,Durant Ave & Bowditch St,37.8681063,-122.2567029,1
2316 HASTE ST,2316 Haste St,37.8652033,-122.2623413,1
2151 BERKELEY WY,2151 Berkeley Way,37.87385,-122.266984,1
2721 CHANNING,2721 Channing Way,37.8678684,-122.2532658,1
CAFE 3,Cafe 3,37.8671335,-122.2605121,1
STRAWBERRY CANYON,Strawberry Canyon,37.8730075,-122.24429,1
0 UNIT-2 WADA,Unit 2 Wada Hall,37.8657843,-122.2548611,1
1950 UNIVERSITY HALL,University Hall,37.8719085,-122.2664944,1
BANC W BOW,Bancroft Way & Bowditch St,37.869055,-122.256951,1
0 HESSE HALL,Hesse Hall,37.8743128,-122.2593508,1
CKC LOT C,Clark Kerr Campus Lot C,37.8641271,-122.2503106,1
2515 DURANT,2515 Durant Ave,37.8680805,-122.258443,1
DUR-PIED,Piedmont Ave & Durant Ave,37.8686768,-122.2522753,1
585 RED OAK,585 Red Oak Ave,37.8832158,-122.3026332,1
RSF,Recreational Sports Facility,37.8684387,-122.2633102,1
2300 SHATTUCK AV,2300 Shattuck Ave,37.867123,-122.268251,1
2545 HILLEGASS,2545 Hillegass Ave,37.8637707,-122.2560881,1
OAKLAND CA,,,,1
1070 JACKSON ST,1070 Jackson St,37.8843984,-122.3001797,1
SHATTUCK/BLAKE,Shattuck Ave & Blake St,37.8630812,-122.2671851,1
717 POTTER ST,717 Potter St,37.85145,-122.294537,1
104 KROEBER HALL,Kroeber Hall,37.869853,-122.2551518,1
2500 BLOCK DURANT,2500 Durant Ave,37.867621,-122.258655,1
RED OAK/RED OAK,,,,1
INTERNET,,,,1
UNKNOWN-CAMPUS,,,,1
BANCROFT DANA,Bancroft Way & Dana St,37.868458,-122.261913,1
DURANT E TELE,Durant Ave & Telegraph Ave,37.867717,-122.259199,1
2509 HILLEGASS AV,2509 Hillegass Ave,37.8650504,-122.2562005,1
LBNL G-GATE,,,,1
N/E PEOPLES PARK,People's Park,37.8658134,-122.2570583,1
WARRING/DWIGHT,Dwight Way & Warring St,37.865934,-122.250464,1
DUR W TELE,Telegraph Ave & Durant Ave,37.867814,-122.2589767,1
BEAR MARKET,Bear Market,37.8671335,-122.2605121,1
2400 TELEGRAPH AVE,2400 Telegraph Ave,37.8674642,-122.2594219,1
2500 HASTE,2500 Haste St,37.8660122,-122.2585881,1
2535 CHANNING,Channing-Bowditch Apartments,37.8673656,-122.2573096,1
TORONTO CANADA,,,,1
0 BECHTEL TERRACE,Bechtel Terrace,37.8741858,-122.258188,1
TELEGRAPH AV,"Telegraph Ave, Berkeley, CA, USA",37.8607857,-122.2590742,1
UVA-156,University Village Apartments,37.8849256,-122.3010808,1
0 RFS-420,,,,1
0 CKC-1,Clark Kerr Campus Building 1,37.8641271,-122.2503106,1
UVA-157,University Village Apartments,37.8849256,-122.3010808,1
SATHER GATE GARAGE,,,,1
TELE / CHANNING,Telegraph Ave & Channing Way,37.866914,-122.2587858,1
SANTA BARBARA,,,,1
0 GIRTON HALL,Girton Hall,37.8723921,-122.2541475,1
WEST END WAY,West End Way,37.8838859,-122.3050819,1
2728 CHANNING,2728 Channing Way,37.8673613,-122.2528495,1
2727 CHANNING WAY,2727 Channing Way,37.8678836,-122.2527941,1
RIDGE / LALOMA,La Loma Ave & Ridge Rd,37.8764708,-122.2570195,1
MCMILLAN ROAD,McMillan Rd,37.8772894,-122.2479804,1
2340 TELEGRAPH AVE,2340 Telegraph Ave,37.8679931,-122.2592389,1
UVA-127,University Village Apartments,37.8849256,-122.3010808,1
2500 BLK DWIGHT,2500 Dwight Way,37.8651228,-122.2584226,1
GAYLEY RIM,,,,1
2307 PIEDMONT,2307 Piedmont Ave,37.8690785,-122.2517433,1
COLLEGE/DURANT,College Ave & Durant Ave,37.8683469,-122.2544485,1
OXF/KITT,Oxford St & Kittredge St,37.8687275,-122.266171,1
UCPD BIKE BUREAU,,,,1
2250 PROSPECT,2250 Prospect St,37.8696726,-122.2506865,1
2709 DWIGHT WAY,2709 Dwight Way,37.866045,-122.253355,1
2460 PARKER,2460 Parker St,37.8632873,-122.2577902,1
CODORNICES CREEK,,,,1
HEARST/LA LOMA,Hearst Ave & La Loma Ave,37.8755274,-122.2568119,1
WARRING / DERBY,Warring St & Derby St,37.8623176,-122.2501125,1
UNKNOWN LOCATION,,,,1
2311 PIEDMONT AV,2311 Piedmont Ave,37.8687354,-122.2517519,1
BAN DANA,Bancroft St & Dana St,37.8684357,-122.2614604,1
2529 TELEGRAPH AV,2529 Telegraph Ave,37.8644729,-122.258215,1
NORTH GATE HALL,North Gate Hall,37.8749998,-122.2596684,1
PIED DWIGHT,Piedmont Ave & Dwight Way,37.865983,-122.251411,1
UNIT-2 COURTYARD,Unit 2 Courtyard,37.8684357,-122.2614604,1
335 OHLONE,335 Ohlone Ave,37.8849492,-122.305112,1
SPACESCI ADD,,,,1
GIAUQUE LAB,,,,1
2500 HEARST AV,2500 Hearst Ave,37.8750225,-122.260132,1
2525 DURANT,2525 Durant Ave,37.868249,-122.257767,1
2505 TELEGRAPH AV,2505 Telegraph Ave,37.8650027,-122.2582815,1
HEARST FIELD,Hearst Field Annex,37.8694693,-122.2581587,1
2331 BLAKE ST,2331 Blake St,37.8641,-122.261376,1
WARRING / PARKER,Parker St & Warring St,37.864131,-122.2502923,1
BANC BOW,Bancroft Way & Bowditch St,37.869055,-122.256951,1
2537 REGENT,2537 Regent St,37.8638158,-122.2575968,1
BANC-DANA,Bancroft Way & Dana St,37.868458,-122.261913,1
174 PACHECO AVE,,,,1
UNI OXFORD,University Ave & Oxford St,37.8724769,-122.2661723,1
DWIGHT/COLLEGE,Dwight Way & College Ave,37.865707,-122.2539054,1
CENTER OXFORD,Center St & Oxford St,37.8705998,-122.2659311,1
2530 BANCROFT WAY,2530 Bancroft Way,37.868542,-122.258235,1
TELEGRAPH/HASTE,Telegraph Ave & Haste St,37.8660242,-122.2586271,1
7TH N/GILMAN,7th St & Gilman St,37.8795809,-122.3002762,1
TELE BANC,Telegraph Ave & Bancroft Way,37.8687287,-122.2591604,1
THE DEN,The Den,37.8670428,-122.2560561,1
485 OHLONE,485 Ohlone Ave,37.8849307,-122.3043907,1
2600 BANCROFT WAY,2600 Bancroft Way,37.868766,-122.256558,1
7257 SKYLINE BLVD,7257 Skyline Blvd,37.842305,-122.198277,1
22 WHEELER HALL,Wheeler Hall,37.8713074,-122.2591493,1
HERCULES,,,,1
CHANN DANA,Channing Way & Dana St,37.8666209,-122.2610857,1
0 DWINELLE ANNEX,Dwinelle Annex,37.8703395,-122.2612068,1
DANA/DWIGHT,Dwight Way & Dana St,37.8648334,-122.2607244,1
2490 CHANNING WAY,2490 Channing Way,37.8667538,-122.259099,1
LBNL-80,Lawrence Berkeley National Laboratory,37.8754404,-122.2455364,1
LBNL-86,Lawrence Berkeley National Laboratory,37.8754404,-122.2455364,1
2830 DERBY,2830 Derby St,37.862105,-122.249852,1
CHAN E TELE,Telegraph Ave & Channing Way,37.866914,-122.2587858,1
BANCROFT / BARROWS,Bancroft Way & Barrow Ln,37.8688307,-122.2583329,1
TELE AND DURANT,Telegraph Ave & Durant Ave,37.867814,-122.2589767,1
425 GOODING WAY,425 Gooding Way,37.8848537,-122.3016558,1
LBNL-45,Lawrence Berkeley National Laboratory,37.8754404,-122.2455364,1
3300 REGATTA,,,,1
SAN ANSELMO,,,,1
CYCLOTRON ROAD,Cyclotron Rd,37.8746818,-122.2522158,1
LIVERMORE,,,,1
CHAN W TELE,Telegraph Ave & Channing Way,37.866914,-122.2587858,1
DANA CHANNING,Channing Way & Dana St,37.8666209,-122.2610857,1
2530 DWIGHT WAY,2530 Dwight Way,37.8652965,-122.2569906,1
2536 COLLEGE,2536 College Ave,37.864365,-122.254124,1
0 GILMAN HALL,Gilman Hall,37.8726546,-122.2563024,1
UVA-106,University Village Apartments,37.8849256,-122.3010808,1
2311 PIEDMONT,2311 Piedmont Ave,37.8687354,-122.2517519,1
2410 PARKER,2410 Parker St,37.862858,-122.259712,1
2200 BLOCK BANCROFT,2200 Bancroft Way,37.867428,-122.2655774,1
2540 TELEGRAPH AV,2540 Telegraph Ave,37.864513,-122.258863,1
DURANT TELEGRAPH,Telegraph Ave & Durant Ave,37.867814,-122.2589767,1
SHATTUCK/ADDISON,Shattuck Ave & Addison St,37.8711683,-122.2682847,1
TELE S/DURANT,Telegraph Ave & Durant Ave,37.867814,-122.2589767,1
1528 JULIA ST,1528 Julia St,37.854067,-122.277972,1
DWIGHT FULTON,Dwight Way & Fulton St,37.8642505,-122.2652527,1
MANDELA PARKWAY,"Mandela Pkwy, Oakland, CA, USA",37.819802,-122.2893313,1
0 ALUMNI HOUSE,Alumni House,37.8696964,-122.2611015,1
DURANT ELLSWORTH,Durant Ave & Ellsworth St,37.867143,-122.263696,1
2 PANORAMIC WAY,2 Panoramic Way,37.8692276,-122.2498586,1
2301 BANCROFT WAY,2301 Bancroft Way,37.8685702,-122.2627233,1
DWIGHT/PROSPECT,Dwight Way & Prospect St,37.8659956,-122.2495667,1
2415 PROSPECT,2415 Prospect St,37.8676141,-122.2495866,1
2635 REGENT,2635 Regent St,37.8620736,-122.2574851,1
BOWDITCH/CHANNING,Channing Way & Bowditch St,37.8672098,-122.2565217,1
BANC BARR,Bancroft Way & Barrow Ln,37.8688307,-122.2583329,1
CHAN/TELE,Telegraph Ave & Channing Way,37.866914,-122.2587858,1
0 CHEIT HALL,Cheit Hall,37.8717284,-122.2533872,1
LAFAYETTE,,,,1
BOW DUR,Durant Ave & Bowditch St,37.8681063,-122.2567029,1
ELLS BANC,Bancroft Way & Ellsworth Street,37.868147,-122.263961,1
0 LBNL-90,Lawrence Berkeley National Laboratory,37.8754404,-122.2455364,1
2362 BANCROFT WAY,2362 Bancroft Way,37.8681644,-122.2620564,1
DWIGHT / DANA,Dwight Way & Dana St,37.8648334,-122.2607244,1
4051 SAN PABLO,4051 San Pablo Ave,37.8311776,-122.2802148,1
CKC-13,Clark Kerr Campus Building 13,37.8641271,-122.2503106,1
2241 CHANNING,2241 Channing Way,37.86629,-122.2638001,1
SHATT/CENTER,Shattuck Ave & Center St,37.8703057,-122.2680389,1
2732 DURANT AV,2732 Durant Ave,37.8683601,-122.2528723,1
171 KOSHLAND HALL,Koshland Hall,37.8739448,-122.2649042,1
COLLEGE / HASTE,College Ave & Haste St,37.8665789,-122.2540827,1
740 27TH,740 27th St,37.8176201,-122.2739972,1
CROSS CAMPUS RD,,,,1
HASTE BOWDITCH,Haste St & Bowditch St,37.8663193,-122.2563434,1
0 UAM,,,,1
OHLONE/KINKEAD,Ohlone Ave & Kinkead Way,37.8851243,-122.3030119,1
MEMORIAL FOUNTAIN,,,,1
2475 BANCROFT WAY,2475 Bancroft Way,37.8689963,-122.2596559,1
COLL DWIGHT,Dwight Way & College Ave,37.865707,-122.2539054,1
2480 BANCROFT WAY,2480 Bancroft Way,37.868375,-122.259648,1
1200 LAKESHORE DR,,,,1
LBNL 67,Lawrence Berkeley National Laboratory,37.8754404,-122.2455364,1
BAN W DANA,Bancroft Way & Dana St,37.8684357,-122.2614604,1
540 RED OAK,540 Red Oak Ave,37.8830619,-122.3025834,1
LBNL-47,Lawrence Berkeley National Laboratory,37.8754404,-122.2455364,1
7257 SKYLINE DR,7257 Skyline Blvd,37.842305,-122.198277,1
ELLSWORTH/DURANT,Durant Ave & Ellsworth St,37.8672329,-122.2635606,1
WARRING BANCROFT,Bancroft Way & Warring St,37.8693189,-122.2509292,1
102 SPROUL HALL,Sproul Hall,37.8695068,-122.2587781,1
2335 PIEDMONT,2335 Piedmont Ave,37.868271,-122.251608,1
CHAN PIED,Piedmont Avenue & Channing Way,37.867478,-122.251992,1
CHANNING / FULTON,Channing Way & Fulton St,37.8660389,-122.2656468,1
CHANNING TELEGRAPH,Telegraph Ave & Channing Way,37.866914,-122.2587858,1
SHATTUCK UNI,University Ave & Shattuck Ave,37.872201,-122.268776,1
2241 PIEDMONT AV,2241 Piedmont Ave,37.8704014,-122.2523842,1
0 NW ANIM FACIL,,,,1
2530 DURANT,2530 Durant Ave,37.8677429,-122.2574584,1
BANCROFT/TELE,Telegraph Ave & Bancroft Way,37.8687287,-122.2591604,1
MONROE / JACKSON,Jackson St & Monroe St,37.8840891,-122.2998447,1
0 TELEGRAPH AV,Telegraph Ave,37.8607857,-122.2590742,1
BEAT 2,,,,1
E/ PEOPLES PARK,People's Park,37.8658134,-122.2570583,1
2600 DURANT,2600 Durant Ave,37.867906,-122.256275,1
UNIVERSITY/MLK,University Ave & M.L.K. Jr Way,37.8716087,-122.2730269,1
2538 DURANT AV,2538 Durant Ave,37.867758,-122.257175,1
WITTER FLD HOUSE,Witter Field House,37.8711896,-122.2487272,1
FREMONT,,,,1
ROCKWALL,,,,1
ALUMNAE HALL,Anna Head Alumnae Hall,37.8663273,-122.2575953,1
CLAREMONT CANYON,,,,1
SILVER LAB,,,,1
2534 WARRING,2534 Warring St,37.864596,-122.250684,1
2480 BANCROFT,2480 Bancroft Way,37.868375,-122.259648,1
2315 PARKER,2315 Parker St,37.863101,-122.262019,1
HEARST SPRUCE,Hearst Ave & Spruce St,37.874229,-122.265217,1
2437 WARRING,2437 Warring St,37.8666038,-122.2502924,1
2400 HASTE ST,2400 Haste St,37.865421,-122.259921,1
2722 DURANT AV,2722 Durant Ave,37.8682169,-122.2533411,1
HAWAII,,,,1
2161 DWIGHT WAY,2161 Dwight Way,37.864432,-122.265845,1
DWIGHT AND REGENT,Dwight Way & Regent St,37.8652063,-122.2577897,1
2547 CHANNING,2547 Channing Way,37.8671432,-122.257146,1
DERBY CLAREMONT,Derby St & Claremont Ave,37.8624992,-122.2470574,1
BAN/BOW,Bancroft Way & Bowditch St,37.8690034,-122.2568986,1
CHAN BOW,Channing Way & Bowditch St,37.8673656,-122.2573096,1
2731 DURANT,2731 Durant Ave,37.868746,-122.253077,1
KULA GULF/RED OAK,Red Oak Ave & Kula Gulf Way,37.8833365,-122.3033585,1
DWIGHT/TELE,Telegraph Ave & Dwight Way,37.8651365,-122.2584315,1
415 KULA GULF WAY,Kula Gulf Way,37.8841356,-122.3036352,1
2724 CHANNING WAY,2724 Channing Way,37.867327,-122.25323,1
2625 DURANT AV,Woo Hon Fai Hall,37.8686741,-122.2558079,1
CORDONICES CREEK,,,,1
SHATTUCK/UNI,University Ave & Shattuck Ave,37.8721732,-122.2678009,1
REGENT/DWIGHT,Dwight Way & Regent St,37.8652063,-122.2577897,1
DWI HILLEGESS,Dwight Way & Hillegass Ave,37.8653753,-122.2565035,1
2454 TELEGRAPH AV,2454 Telegraph Ave,37.8658055,-122.2588543,1
2222 PIEDMONT BLDGS,2222 Piedmont Ave,37.8711648,-122.2530933,1
SF,,,,1
CHAN ELLS,Channing Way & Ellsworth St,37.8663329,-122.263353,1
0 CAMPANILE WAY,Campanile Way,37.8713485,-122.260853,1
RIMWAY,Stadium Rim Way,37.8722193,-122.2512802,1
2510 CHANNING,2510 Channing Way,37.8667454,-122.2582962,1
2412 ELLSWORTH,2412 Ellsworth St,37.865785,-122.263617,1
COLL BANC,Bancroft Way & College Avenue,37.869294,-122.255129,1
EUCLID / HEARST,Hearst Ave & Euclid Ave,37.8751149,-122.2601603,1
2015 HASTE ST,2015 Haste St,37.864918,-122.269264,1
ROHNERT PARK,,,,1
2347 TELEGRAPH AV,"2347 Telegraph Ave, Berkeley, CA 94704, USA",37.868088,-122.25875,1
RFS-445,,,,
CHANNING/WARRING,"Channing Way & Warring St, Berkeley, CA 94704, USA",37.867927,-122.2508414,1
SHATTUCK/DWIGHT,"Shattuck Ave & Dwight Way, Berkeley, CA 94704, USA",37.8639703,-122.2674259,1
BANC/DANA,"Bancroft Way & Dana St, Berkeley, CA 94720, USA",37.8684357,-122.2614604,1
2521 DWIGHT WAY,"2521 Dwight Way, Berkeley, CA 94704, USA",37.8652224,-122.2577799,1
HEARST EUCLID,Hearst Ave & Euclid Ave,37.87493,-122.260552,1
600 GOODING,"600 Gooding Way, Albany, CA 94706, USA",37.8841439,-122.3014511,1
0 LBNL-56,Lawrence Berkeley National Laboratory,37.8754404,-122.2455364,1
BANCROFT / BOWDITCH,"Bancroft Way & Bowditch St, Berkeley, CA 94704, USA",37.8690034,-122.2568986,1
3024 SMYTH RD,"3024 Smyth Rd, Berkeley, CA 94720, USA",37.8677492,-122.2458817,1
DWIGHT TELE,Telegraph Ave & Dwight Way,37.8651407,-122.2606202,1
2433 HASTE ST,"2433 Haste St, Berkeley, CA 94704, USA",37.8660162,-122.2594872,1
2700 CHANNING WAY,"2700 Channing Way, Berkeley, CA 94704, USA",37.8673607,-122.2540202,1
0 OBRIEN HALL,"O'Brien Hall, O'Brien Hall, Berkeley, CA 94720, USA",37.8744045,-122.2590432,1
SP-16,,,,1
2555 BENVENUE,"2555 Benvenue Ave, Berkeley, CA 94704, USA",37.863766,-122.254708,1
2431 BLAKE,"2431 Blake St, Berkeley, CA 94704, USA",37.864367,-122.259286,1
FULTON / DURANT,"Durant Ave & Fulton St, Berkeley, CA 94704, USA",37.8669493,-122.2657063,1
2552 BANCROFT,"2552 Bancroft Way, Berkeley, CA 94704, USA",37.8688621,-122.2579486,1
2401 TELEGRAPH AV,"2401 Telegraph Ave, Berkeley, CA 94704, USA",37.8667575,-122.2585617,1
PIEDMONT/BANCROFT,"Bancroft Way & Piedmont Ave, Berkeley, CA 94704, USA",37.8695901,-122.2523046,1
0 GPB,"Genetics & Plant Biology, Berkeley, CA 94709, USA",37.8734357,-122.2647492,1
PIED BANC,Bancroft Way & Piedmont Ave,37.869607,-122.252647,1
2640 DWIGHT WAY,"2640 Dwight Way, Berkeley, CA 94704, USA",37.865328,-122.254677,1
DUR COL,College Ave & Durant Ave,37.8683511,-122.2566372,1
MARIN,,,,1
2300 BLK CHANNING,"2300 Channing Way, Berkeley, CA 94704, USA",37.8663214,-122.2633274,1
DURANT / ELLSWORTH,"Durant Ave & Ellsworth St, Berkeley, CA 94704, USA",37.8672329,-122.2635606,1
DURANT COLLEGE,College Ave & Durant Ave,37.868302,-122.254628,1
CAL ONE OFFICE,Cal One Card Office,37.8697743,-122.2600361,1
FAT SLICE,Fat Slice Pizza,37.8673419,-122.2608894,1
2547 CHANNING WAY,"2547 Channing Way, Berkeley, CA 94704, USA",37.8671432,-122.257146,1
UNIVERSITY/MCGEE,"University Ave & McGee Ave, Berkeley, CA 94703, USA",37.8709273,-122.2775126,1
2332 CHANNING WAY,"2332 Channing Way, Berkeley, CA 94704, USA",37.866262,-122.261743,1
TELE/HASTE,"Telegraph Ave & Haste St, Berkeley, CA 94704, USA",37.8660242,-122.2586271,1
BAN/SHATT,Shattuck Ave & Bancroft Way,37.8676027,-122.2698855,1
ROCKRIDGE BART,Rockridge BART,37.8446599,-122.2536707,1
0 HERTZ HALL,"Hertz Hall, Berkeley, CA 94720, USA",37.8710811,-122.2556994,1
2400 CHANNING WAY,"2400 Channing Way, Berkeley, CA 94704, USA",37.8667806,-122.2589796,1
FOOTHILL 2,"Foothill Student Housing 2, Berkeley, CA 94709, USA",37.8763325,-122.2565547,1
0 CKC-25,"Clark Kerr Campus, 2602 Warring St, Berkeley, CA 94720, USA",37.8641271,-122.2503106,1
2723 DURANT,"2723 Durant Ave, Berkeley, CA 94704, USA",37.868696,-122.253599,1
6001 ROCKWELL,"6001 Rockwell St, Oakland, CA 94618, USA",37.8494124,-122.248894,1
HOTEL DURANT,Hotel Durant,37.8679092,-122.2585996,1
BECHTEL CENTER,"Bechtel Engineering Center, Berkeley, CA 94709, USA",37.8741858,-122.258188,1
0 PROJECT 29A,,,,1
BLAKE/DANA,"Blake St & Dana St, Berkeley, CA 94704, USA",37.863937,-122.2605567,1
2600 BANCROFT,"2600 Bancroft Way, Berkeley, CA 94704, USA",37.868766,-122.256558,1
ADELINE/WARD,"Adeline St & Ward St, Berkeley, CA 94703, USA",37.8592803,-122.2675723,1
RIM/CANYON,"Stadium Rim Way & Canyon Rd, Berkeley, CA 94704, USA",37.8703311,-122.2495002,1
2430 DWIGHT WAY,"2430 Dwight Way, Berkeley, CA 94704, USA",37.864866,-122.2592321,1
2499 PIEDMONT,"2499 Piedmont Ave, Berkeley, CA 94704, USA",37.866168,-122.251098,1
MARIO SAVIO STEPS,"Mario Savio Steps, Sather Rd, Berkeley, CA 94704, USA",37.8695628,-122.2589526,1
2400 DANA,"2400 Dana St, Berkeley, CA 94704, USA",37.866432,-122.261335,1
LBNL-59,Lawrence Berkeley National Laboratory,37.8754404,-122.2455364,1
1608 1608 4TH STREET,1608 Fourth St,37.873243,-122.3042523,1
2240 BLAKE,"2240 Blake St, Berkeley, CA 94704, USA",37.8634336,-122.2632251,1
3020 SMYTH,"3020 Smyth Rd, Berkeley, CA 94720, USA",37.8675787,-122.2462659,1
2410 WARRING,"2410 Warring St, Berkeley, CA 94704, USA",37.8674047,-122.2509771,1
WITTER FIELD SERGE BLDG,Witter Field Serge Building,37.8711896,-122.2487272,1
DURANT W TELE,Durant Ave & Telegraph Ave,37.867819,-122.258995,1
OXFORD BERKELEY WAY,Berkeley Way & Oxford St,37.873254,-122.266504,1
2200 BANCROFT LOT,"2200 Bancroft Way, Berkeley, CA 94720, USA",37.867428,-122.2655774,1
HILL/DWI,Dwight Way & Hillegass Ave,37.8653795,-122.2586922,1
COLLEGE/RUSSELL,"College Ave & Russell St, Berkeley, CA 94705, USA",37.8584799,-122.2531821,1
CKC SW LOT,"Clark Kerr Campus, 2602 Warring St, Berkeley, CA 94720, USA",37.8641271,-122.2503106,1
2470 BANCROFT WAY,"2470 Bancroft Way, Berkeley, CA 94704, USA",37.8684671,-122.2598002,1
TELE / DWIGHT,"Telegraph Ave & Dwight Way, Berkeley, CA 94704, USA",37.8651365,-122.2584315,1
NORTHGATE,North Gate Hall,37.875004,-122.2618571,1
CENTER SHATTUCK,"Center St. & Shattuck Ave., Berkeley, CA 94704, USA",37.87012,-122.26796,1
DWI E DANA,Dwight Way & Dana St,37.8648376,-122.2629131,1
2339 DURANT,"2339 Durant Ave, Berkeley, CA 94704, USA",37.8677208,-122.2618111,1
MEXICO,,,,1
2605 HASTE ST,"2605 Haste St, Berkeley, CA 94704, USA",37.8665192,-122.2560628,1
BANC W TELE,Bancroft Way & Telegraph Ave,37.8687329,-122.2613491,1
735 WEST END WY,"West End Way, Albany, CA 94706, USA",37.8838859,-122.3050819,1
2400 BLK CHANNING,"2400 Channing Way, Berkeley, CA 94704, USA",37.8667806,-122.2589796,1
735 WESTEND WAY,"West End Way, Albany, CA 94706, USA",37.8838859,-122.3050819,1
HASTE/COLLEGE,"College Ave & Haste St, Berkeley, CA 94704, USA",37.8665789,-122.2540827,1
2367 TELEGRAPH,"2367 Telegraph Ave, Berkeley, CA 94704, USA",37.8674341,-122.2588098,1
DUR E TELE,Durant Ave & Telegraph Ave,37.867717,-122.259199,1
2483 HEARST AV,"2483 Hearst Ave, Berkeley, CA 94709, USA",37.8752201,-122.2605591,1
LBNL BLACKBERRY GATE,,,,1
2140 SHATTUCK AV,"2140 Shattuck Ave, Berkeley, CA 94704, USA",37.8704084,-122.268485,1
NOVATO PD,,,,1
1801 WALNUT ST,"1801 Walnut St, Berkeley, CA 94720, USA",37.8748839,-122.2675681,1
17 GAUSS WAY,"17 Gauss Way, Berkeley, CA 94720, USA",37.8797962,-122.2442633,1
2344 TELEGRAPH AV,"2344 Telegraph Ave, Berkeley, CA 94704, USA",37.8679437,-122.2592771,1
HEARST/ETCH,Etcheverry Hall,37.8756668,-122.2614692,1
1005 6TH,"1005 6th St, Berkeley, CA 94706, USA",37.8829339,-122.3022521,1
CALIFORNIA,,,,1
2589 TELEGRAPH AV,"2589 Telegraph Ave, Berkeley, CA 94704, USA",37.8636161,-122.2582989,1
CHANNING W ELLSWORTH,Channing Way & Ellsworth St,37.8663371,-122.2655417,1
ALAMEDA,,,,1
OHLONE/JACKSON,"Jackson St & Ohlone Ave, Albany, CA 94706, USA",37.8857104,-122.3002869,1
2128 OXFORD,"2128 Oxford St, Berkeley, CA 94704, USA",37.8703474,-122.2661401,1
SIGNPOST-24,,,,1
DWIGHT/BENVENUE,"Dwight Way & Benvenue Ave, Berkeley, CA 94704, USA",37.8655545,-122.2551619,1
SHATTUCK/OREGON,"Shattuck Ave & Oregon St, Berkeley, CA 94705, USA",37.8576334,-122.2667994,1
DWI DANA,Dwight Way & Dana St,37.8648376,-122.2629131,1
UNDERHILL,"Underhill Parking and Field, Berkeley, CA 94720, USA",37.8669127,-122.2549711,1
MOUNTAIN VIEW,,,,1
UVA-139,University Village Apartments,37.8849256,-122.3010808,1
UVA CHILD CR,University Village Apartments,37.8849256,-122.3010808,1
BANCROFT TELE,"Bancroft Way & Telegraph Ave., Berkeley, CA 94720, USA",37.868772,-122.258926,1
2105 BANCROFT WAY,"2105 Bancroft Way, Berkeley, CA 94720, USA",37.8678057,-122.2673024,1
RFS-480,,,,1
PARKER TELE,Telegraph Ave & Parker St,37.863067,-122.258605,1
UNKNOWN-BERKELEY,,,,1
DWI BOW,Dwight Way & Bowditch St,37.8654248,-122.2583314,1
SHPC,,,,1
UVA-104,University Village Apartments,37.8849256,-122.3010808,1
STANFORD,,,,1
ALLSTON HAROLD,Allston Way & Harold Way,37.8692105,-122.2714823,1
2600 HILLTOP DR,2600 Hilltop Dr,37.9840946,-122.3403586,1
1241 GRIZZLY PEAK BLVD,"1241 Grizzly Peak Blvd, Berkeley, CA 94708, USA",37.888742,-122.251438,1
0 LHS,,,,1
AIRPLANE,,,,1
MILVIA/KITTREDGE,"Milvia St & Kittredge St, Berkeley, CA 94704, USA",37.8681606,-122.270354,1
0 WELLMAN HALL,"Wellman Hall, Berkeley, CA 94720, USA",37.8731726,-122.2627881,1
24 SPORTS LANE,"Sport Ln, Berkeley, CA, USA",37.8649077,-122.2473253,1
DWIGHT COLLEGE,Dwight Way & College Ave,37.8657112,-122.2560941,1
HASTE / FULTON,"Haste St & Fulton St, Berkeley, CA 94704, USA",37.8651475,-122.265459,1
CHANNING / TELE,"Telegraph Ave & Channing Way, Berkeley, CA 94704, USA",37.866914,-122.2587858,1
UNDERHILL FIELD,"Underhill Parking and Field, Berkeley, CA 94720, USA",37.8669127,-122.2549711,1
BAN IFO REC SPRT FAC,Recreational Sports Facility,37.865732,-122.2626602,1
UPPER HEARST LOT,Upper Hearst Parking Structure,37.875705,-122.257275,1
HEARST W/EUCLID,"Hearst Ave & Euclid Ave, Berkeley, CA 94709, USA",37.8751149,-122.2601603,1
EUCLID CEDAR,Euclid Ave & Cedar St,37.879592,-122.261108,1
CHAN TELE,Telegraph Ave & Channing Way,37.8669182,-122.2609745,1
LBNL-14,,,,1
BOWDITCH/DWIGHT,"Dwight Way & Bowditch St, Berkeley, CA 94704, USA",37.8654206,-122.2561427,1
SHATTUCK KITTREDGE,Shattuck Ave & Kittredge St,37.868192,-122.26799,1
2400 DWIGHT WAY,"2400 Dwight Way, Berkeley, CA 94704, USA",37.8648212,-122.2607051,1
N/ UNIT-1,Unit 1,37.866939,-122.2675406,1
GAYLEY HEARST,Hearst Ave & Gayley Rd,37.8755316,-122.2590006,1
0 UNIVERSITY DR,"University Dr, Berkeley, CA, USA",37.8731833,-122.2587863,1
2465 TELEGRAPH AV,"2465 Telegraph Ave, Berkeley, CA 94704, USA",37.8656935,-122.2585471,1
2710 BANCROFT,"2710 Bancroft Way, Berkeley, CA 94704, USA",37.8692302,-122.2539502,1
1005 6TH ST,"1005 6th St, Berkeley, CA 94706, USA",37.8829339,-122.3022521,1
2005 HEARST,"2005 Hearst Ave, Berkeley, CA 94709, USA",37.873899,-122.270653,1
JBEI,,,,1
SENIOR HALL,"Senior Hall, Berkeley, CA 94720, USA",37.8718765,-122.2553671,1
2020 KITTREDGE ST,"2020 Kittredge St, Berkeley, CA 94704, USA",37.8680862,-122.2693821,1
LBNL-15,,,,1
0 HEARST AV,"Hearst Ave, Berkeley, CA, USA",37.8724805,-122.279548,1
2400 HEARST AVE,"2400 Hearst Ave, Berkeley, CA 94709, USA",37.8747027,-122.2622493,1
STRAWBERRY CANYON LOT,"Parking Lot for Strawberry Canyon Fire Trail, Centennial Dr, Berkeley, CA 94705, USA",37.877669,-122.243068,1
EUCLID HEARST,Hearst Ave & Euclid Ave,37.87493,-122.260552,1
2300 BANCROFT WAY,"2300 Bancroft Way, Berkeley, CA 94704, USA",37.867988,-122.2630247,1
SHATT/UNIV,University Ave & Shattuck Ave,37.872119,-122.267984,1
BANC W FULTON,Bancroft Way & Fulton St,37.8678383,-122.2680723,1
LBNL-85,,,,1
SP-15,,,,1
3210 TOLMAN HALL,"Tolman Hall, Berkeley, CA 94720, USA",37.8741044,-122.2638912,1
0 FOOTHILL-4,"Foothill Student Housing 4, Berkeley, CA 94720, USA",37.87538,-122.2561211,1
0 CAMPBELL HALL,"Campbell Hall, Berkeley, CA 94720, USA",37.8730114,-122.2569644,1
40TH SAN PABLO,,,,1
RUSSELL TELEGRAPH,Telegraph Ave & Russell St,37.8576776,-122.2617022,1
2500 TELEGRAPH AV,"2500 Telegraph Ave, Berkeley, CA 94704, USA",37.8649541,-122.2589126,1
RIM / GAYLEY,"Gayley Rd & Stadium Rim Way, Berkeley, CA 94720, USA",37.8725667,-122.2537582,1
FOOTHILL HOUSING,"Foothill Student Housing, Berkeley, CA 94720, USA",37.8753453,-122.2549756,1
BANCROFT/BARROWS,Bancroft Way & Barrow Ln,37.8688307,-122.2583329,1
BANC COLL,Bancroft Way & College Ave,37.8693014,-122.2567921,1
SHATTUCK/VINE,"Shattuck Ave & Vine St, Berkeley, CA 94709, USA",37.8802352,-122.2692423,1
1126 JACKSON ST,"1126 Jackson St, Albany, CA 94706, USA",37.883963,-122.2998752,1
2152 CENTER ST,"2152 Center St, Berkeley, CA 94704, USA",37.8703566,-122.266429,1
1800 WALNUT ST,"1800 Walnut St, Berkeley, CA 94709, USA",37.8748812,-122.2676048,1
2232 PIEDMONT AV,"2232 Piedmont Ave, Berkeley, CA 94720, USA",37.8707676,-122.2530294,1
RFS-452,,,,1
UVA-OFFICE,University Village Apartments,37.8849256,-122.3010808,1
2421 FULTON ST,"2421 Fulton St, Berkeley, CA 94704, USA",37.8652262,-122.2654569,1
520 SUTARDJA DAI HALL,"Sutardja Dai Hall, Berkeley, CA 94709, USA",37.8747924,-122.2583104,1
1925 WALNUT ST,"1925 Walnut St, Berkeley, CA 94704, USA",37.8730111,-122.266802,1
FSM CAFE,FSM Cafe,37.8722251,-122.2618834,1
HILL/PARKER,Parker St & Hillegass Ave,37.8634418,-122.2584924,1
STRAWBERRY POOL,Strawberry Canyon Pool,37.8721848,-122.2487035,1
FULTON CHANNING,Channing Way & Fulton St,37.8660431,-122.2678355,1
2510 BANCROFT,"2510 Bancroft Way, Berkeley, CA 94704, USA",37.8685381,-122.2587686,1
OXFORD/KITTREDGE,"Oxford St & Kittredge St, Berkeley, CA 94704, USA",37.8687275,-122.266171,1
UVA-135,University Village Apartments,37.8849256,-122.3010808,1
MEMORIAL MEMORIAL STADIUM,Memorial Stadium,37.8712139,-122.2524698,1
PLEASANTON,,,,1
RED OAK/KINKEAD,"Red Oak Ave & Kinkead Way, Albany, CA 94706, USA",37.8831048,-122.3023229,1
UVA-128,University Village Apartments,37.8849256,-122.3010808,1
0 OXFORD TRACT,,,,1
DWI REGENT,Dwight Way & Regent St,37.8652105,-122.2599784,1
CYCLOTRON RD,"Cyclotron Rd, Berkeley, CA, USA",37.8746818,-122.2522158,1
2400 COLLEGE AV,"2400 College Ave, Berkeley, CA 94704, USA",37.8674839,-122.2542655,1
1070 JACKSON,"1070 Jackson St, Albany, CA 94706, USA",37.8843984,-122.3001797,1
OXFORD HEARST,Oxford St & Hearst Av,37.874507,-122.266277,1
2520 CHANNING,"Maximino Martinez Commons, 2520 Channing Way, Berkeley, CA 94720, USA",37.8666016,-122.2577573,1
BERKELEY ART MUSEUM,"The UC Berkeley Art Museum and Pacific Film Archive, 2625 Durant Ave #2250, Berkeley, CA 94720, USA",37.868797,-122.2558243,1
BANCROFT STEPS,"Bancroft Steps, Berkeley, CA 94704, USA",37.869421,-122.2505864,1
2415 OREGON,"2415 Oregon St, Berkeley, CA 94705, USA",37.8588488,-122.2585316,1
2425 PIEDMONT,"2425 Piedmont Ave, Berkeley, CA 94704, USA",37.866789,-122.2513697,1
UNIT 2-CUNNINGHAM,"Cunningham Hall, #2, Berkeley, CA 94720, USA",37.8663027,-122.2552402,1
B&T,,,,1
0 BANCROFT LIBRARY,Bancroft Library,37.8722054,-122.2608862,1
0 ANTHONY HALL,Anthony Hall,37.8706949,-122.2604124,1
2700 DURANT,"2700 Durant Ave, Berkeley, CA 94704, USA",37.8683311,-122.254428,1
0 FOOTHILL-1,"Foothill Student Housing 1, Berkeley, CA 94709, USA",37.8757424,-122.2563979,1
STRAWBERRY CENTER,"Strawberry Canyon Center, Centennial Dr, Berkeley, CA 94705, USA",37.8730075,-122.24429,1
GAYLEY IFO HAAS BUSINESS SCHOOL,Haas School of Business,37.8717326,-122.2555759,1
2533 TELEGRAPH AV,"2533 Telegraph Ave, Berkeley, CA 94704, USA",37.8644176,-122.2583297,1
COLLEGE/BANCROFT,"Bancroft Way & College Ave, Berkeley, CA 94704, USA",37.8692972,-122.2546034,1
HEARST/GAYLEY,"Hearst Ave & Gayley Rd, Berkeley, CA 94709, USA",37.8755274,-122.2568119,1
810 OHLONE AVE,"810 Ohlone Ave, Albany, CA 94706, USA",37.8850464,-122.3032971,1
FAIRFIELD,,,,1
2425 BOWDITCH ST,"2425 Bowditch St, Berkeley, CA 94704, USA",37.8667668,-122.2564144,1
MONROE ST / 10TH,"10th St & Monroe St, Albany, CA 94706, USA",37.8843879,-122.2982971,1
DWIGHT/ E FULTON,"Dwight Way & Fulton St, Berkeley, CA 94704, USA",37.8642505,-122.2652527,1
NAVAL ARCH,,,,1
FACULTY CLUB,Faculty Club,37.8717088,-122.2583121,1
2500 BLK CHANNING,"2500 Channing Way, Berkeley, CA 94704, USA",37.8669026,-122.2587602,1
CROSSROAD,Crossroads,37.867047,-122.2582448,1
PIED SOUTH DR,"Piedmont Ave, Berkeley, CA, USA",37.8640777,-122.2514871,1
2521 DURANT AV,"2521 Durant Ave, Berkeley, CA 94704, USA",37.8683129,-122.2581296,1
S/MULFORD,"Mulford Hall, Berkeley, CA 94720, USA",37.8726096,-122.2644811,1
CESAR CHAVEZ,Cesar Chavez Student Center,37.8697743,-122.2600361,1
2176 KITTRIDGE,"2176 Kittredge St, Berkeley, CA 94704, USA",37.8683919,-122.2664019,1
5940 COLLEGE AVE,"5940 College Ave, Oakland, CA 94618, USA",37.847968,-122.2518451,1
GRIFFITHS HALL,"Griffiths Hall, Berkeley, CA 94720, USA",37.8658151,-122.2542694,1
PARKER/ W TELEGRAPH,"Telegraph Ave & Parker St, Berkeley, CA 94704, USA",37.8632728,-122.2587294,1
CHAN E DANA,Channing Way & Dana St,37.8666251,-122.2632744,1
KOSHLAND/BARKER,,,,1
DUR/COL,"College Ave & Durant Ave, Berkeley, CA 94704, USA",37.8683469,-122.2544485,1
LBNL 55,,,,1
730 KINKEAD,"730 Kinkead Way, Albany, CA 94706, USA",37.8836953,-122.3025072,1
NEW MEXICO,,,,1
600 RED OAK WY,"600 Red Oak Ave, Albany, CA 94706, USA",37.8830619,-122.3025834,1
0 LBNL-50,,,,1
BERKELEY/OAKLAND,,,,1
2334 BOW,"2334 Bowditch St, Berkeley, CA 94704, USA",37.8669519,-122.2565397,1
2000 CARELTON,"2000 Carleton St, Berkeley, CA 94704, USA",37.8609355,-122.2695117,1
GOLDEN BEAR REC,Golden Bear Recreation Center,37.8654083,-122.2471799,1
BANCROFT PIEDMONT,Bancroft Way & Piedmont Ave,37.869607,-122.252647,1
UVA-131,University Village Apartments,37.8849256,-122.3010808,1
253 CORY HALL,"Cory Hall, Berkeley, CA 94720, USA",37.8750364,-122.2573242,1
2939 DWIGHT WAY,"2939 Dwight Way, Berkeley, CA 94720, USA",37.866092,-122.2480863,1
2317 HEARST AV,2317 Hearst Ave,37.874903,-122.2652227,1
234 HEARST GYM,"Hearst Memorial Gymnasium, Berkeley, CA 94720, USA",37.869336,-122.257464,1
GILMAN ST,"Gilman St, Berkeley, CA, USA",37.8797977,-122.2991741,1
DURANT E ELLS,"Durant Ave & Ellsworth St, Berkeley, CA 94704, USA",37.867143,-122.263696,1
WEST I80,,,,1
LBNL LOT J,,,,1
DUR/ELLS,"Durant Ave & Ellsworth St, Berkeley, CA 94704, USA",37.8672329,-122.2635606,1
2980 COLLEGE,"2980 College Ave, Berkeley, CA 94705, USA",37.8565496,-122.2533274,1
2200 BANCROFT LIBRARY,"Bancroft Library, S Hall Rd, Berkeley, CA 94720, USA",37.8722012,-122.2586975,1
2604 REGENT,"2604 Regent St, Berkeley, CA 94704, USA",37.863062,-122.257863,1
2336 PIEDMONT AVE,"2336 Piedmont Ave, Berkeley, CA 94704, USA",37.8682633,-122.2523763,1
2525 REGENT,"2525 Regent St, Berkeley, CA 94704, USA",37.864288,-122.257339,1
2530 DWIGHT,"2530 Dwight Way, Berkeley, CA 94704, USA",37.8652965,-122.2569906,1
HEARST ARCH,Hearst Ave & Arch St,37.874585,-122.264234,1
1608 - 4TH,"1608 4th St, San Francisco, CA 94130, USA",37.8232755,-122.3644083,1
BEVERLY CLEARY HALL,"Beverly Cleary Hall, Berkeley, CA 94704, USA",37.866433,-122.259553,1
100 GPB,"Genetics & Plant Biology, Berkeley, CA 94709, USA",37.8734357,-122.2647492,1
2350 TELEGRAPH AV,"2350 Telegraph Ave, Berkeley, CA 94704, USA",37.8676,-122.259211,1
TOLMAN BREEZEWAY,,,,1
DUR DAN,Durant Ave & Dana St,37.8675207,-122.2634626,1
OCTAGON BRIDGE,,,,1
MEMORIAL MEMORIAL STADIUM TRAILERS,California Memorial Stadium,37.8712139,-122.2524698,1
1020 JACKSON ST,"1020 Jackson St, Albany, CA 94706, USA",37.8863878,-122.3005167,1
1291 55TH ST,"1291 55th St, Emeryville, CA 94608, USA",37.837684,-122.285462,1
SAN PABLO AV,"San Pablo Ave, Berkeley, CA, USA",37.8665832,-122.2913846,1
SOUTH KOREA,,,,1
WALNUT CREEK CA,"Walnut St, Berkeley, CA, USA",37.8803583,-122.2681855,1
DANA/HASTE,"Haste St & Dana St, Berkeley, CA 94704, USA",37.8657305,-122.260915,1
1400 MLK JR,"1400 M.L.K. Jr Way, Berkeley, CA 94709, USA",37.8814343,-122.2741047,1
0 UNIT-1,Unit 1,37.8676248,-122.2579421,1
HEARST MINING BLDG,"Hearst Memorial Mining Building, Berkeley, CA 94720, USA",37.8744829,-122.2572541,1
SE/TELE / HASTE,"Telegraph Ave & Haste St, Berkeley, CA 94704, USA",37.8660242,-122.2586271,1
2522 BANCROFT WAY,"2522 Bancroft Way, Berkeley, CA 94704, USA",37.8685455,-122.2585216,1
LBNL-7,,,,1
775 GOODING WAY,"775 Gooding Way, Albany, CA 94706, USA",37.883467,-122.3011814,1
DWINELLE HALL / SW,"Dwinelle Hall, Berkeley, CA 94704, USA",37.8707002,-122.2605518,1
1828 EUCLID AV,"1828 Euclid Ave, Berkeley, CA 94709, USA",37.8757117,-122.2602911,1
2333 DWIGHT WAY,"2333 Dwight Way, Berkeley, CA 94704, USA",37.864973,-122.26171,1
PALO ALTO,,,,1
2642 DERBY,"2642 Derby St, Berkeley, CA 94705, USA",37.8615489,-122.254013,1
BANCROFT/ E OXFORD,,,,1
CENTENNIAL DR / GRIZZLY PEAK BLVD,"Grizzly Peak Blvd & Centennial Dr, Berkeley, CA 94705, USA",37.8830009,-122.2458133,1
DWIGHT - SPORTS LANE,,,,1
2520 HILLEGASS,"2520 Hillegass Ave, Berkeley, CA 94704, USA",37.8644696,-122.2567063,1
CONTRA COSTA ACADEMY,,,,1
PIED AND CHANNING,Piedmont Ave & Channing Way,37.867478,-122.251992,1
808 CAMELIA,"808 Camelia St, Berkeley, CA 94710, USA",37.877269,-122.301328,1
2121 ALSTON,"2121 Allston Way, Berkeley, CA 94720, USA",37.8697676,-122.2668361,1
CHAN-PROS,Channing Way & Prospect St,37.8680535,-122.2521344,1
FERNWALD/DWIGHT,"Dwight Way & Fernwald Rd, Berkeley, CA 94705, USA",37.8661402,-122.2469952,1
2600 BLK HASTE,"2600 Haste St, Berkeley, CA 94720, USA",37.8663077,-122.2563183,1
2500 CHANN,"2500 Channing Way, Berkeley, CA 94704, USA",37.8669026,-122.2587602,1
51ST CLARK ST,,,,1
2484 TELEGRAPH AV,"2484 Telegraph Ave, Berkeley, CA 94704, USA",37.8653921,-122.2586588,1
RIM-GAYLEY,,,,1
BERKELEY CAMPUS,,,,1
8TH ST/HARRISON,"8th St & Harrison St, Berkeley, CA 94710, USA",37.881601,-122.2997479,1
SIGNPOST-9,,,,1
REDWOOD CITY,,,,1
BAN I HOUSE,International House,37.8695082,-122.2539547,1
CHAVEZ CESAR CENTER/N,"Cesar Chavez Student Center, Berkeley, CA 94720, USA",37.8697743,-122.2600361,1
2575 VIRGINIA,"2575 Virginia St, Berkeley, CA 94709, USA",37.8779909,-122.2593624,1
HEARST/OX,"Oxford St & Hearst Ave, Berkeley, CA 94720, USA",37.8741471,-122.2662241,1
MONTANA,,,,1
PIED DURANT,Piedmont Ave & Durant Ave,37.868681,-122.254464,1
2369 TELEGRAPH AV,"2369 Telegraph Ave, Berkeley, CA 94704, USA",37.867451,-122.258631,1
CKC-15,"Clark Kerr Campus, 2602 Warring St, Berkeley, CA 94720, USA",37.8641271,-122.2503106,1
COLLEGE / BANCROFT,"Bancroft Way & College Ave, Berkeley, CA 94704, USA",37.8692972,-122.2546034,1
JACKSON ST,"Jackson St, San Francisco, CA, USA",37.7966736,-122.4015863,1
2588 TELEGRAPH AV,"2588 Telegraph Ave, Berkeley, CA 94704, USA",37.8635703,-122.2589314,1
SAUSALITO,,,,1
1371 GRIZZLEY PEAK,"1371 Grizzly Peak Blvd, Berkeley, CA 94708, USA",37.885925,-122.248814,1
RFS-118,,,,1
DURANT/UNIT 1,Unit 1,37.8676248,-122.2579421,1
437 GOODING WAY,"437 Gooding Way, Albany, CA 94706, USA",37.8848031,-122.3016383,1
2700 DURANT AV,"2700 Durant Ave, Berkeley, CA 94704, USA",37.8683311,-122.254428,1
LHS TERRACE LOTS,,,,1
2300 DWIGHT,"2300 Dwight Way, Berkeley, CA 94704, USA",37.8645277,-122.2629622,1
2ND CAMELIA,,,,1
FULT N/ DURANT,"Durant Ave & Fulton St, Berkeley, CA 94704, USA",37.8669493,-122.2657063,1
1429 WALNUT,"1429 Walnut St, Berkeley, CA 94709, USA",37.8811394,-122.2682078,1
GOODING/OHLONE,"Ohlone Ave & Gooding Way, Albany, CA 94706, USA",37.8853738,-122.3018541,1
2732 HASTE ST,"2732 Haste St, Berkeley, CA 94704, USA",37.8664879,-122.252383,1
LBNL LOT E,,,,1
2390 SHATTUCK AV,"2390 Shattuck Ave, Berkeley, CA 94704, USA",37.8659389,-122.2676756,1
SAN RAMON,,,,1
JACKSON AND MONROE,"Jackson St & Monroe St, Albany, CA 94706, USA",37.8840891,-122.2998447,1
SHATTUCK / DWIGHT,"Shattuck Ave & Dwight Way, Berkeley, CA 94704, USA",37.8639703,-122.2674259,1
3313 TOLMAN HALL,"Tolman Hall, Berkeley, CA 94720, USA",37.8741044,-122.2638912,1
LBNL F LOT,,,,1
LBNL - 27,,,,1
DERBY/WARRING,"Warring St & Derby St, Berkeley, CA 94705, USA",37.8623176,-122.2501125,1
GAY IFO MEMORIAL STADIUM,California Memorial Stadium,37.8712139,-122.2524698,1
60A HESSE HALL,"Hesse Hall, Berkeley, CA 94709, USA",37.8743128,-122.2593508,1
ARCH/HEARST,"Hearst Ave & Arch St, Berkeley, CA 94709, USA",37.8745441,-122.2639584,1
0 DAVIS HALL,"Davis Hall, Berkeley, CA 94720, USA",37.8746326,-122.2581201,1
CHAN-TELE,"Channing Way, Berkeley, CA, USA",37.8669182,-122.2609745,1
2300 COLLEGE,"2300 College Ave, Berkeley, CA 94704, USA",37.8692854,-122.2546207,1
CHANN W OF PIED,,,,1
SE ESHLEMEN,,,,1
DANA/ HASTE,"Haste St & Dana St, Berkeley, CA 94704, USA",37.8657305,-122.260915,1
2437 PIEDMONT,"2437 Piedmont Ave, Berkeley, CA 94704, USA",37.866503,-122.251245,1
BANC E LANE,,,,1
1834 EUCLID AV,"1834 Euclid Ave, Berkeley, CA 94709, USA",37.875651,-122.2602797,1
FULT KITT,Fulton St & Kittredge St,37.8687317,-122.2683597,1
RIM WAY/CENTENNIAL,"Centennial Dr & Stadium Rim Way, Berkeley, CA 94720, USA",37.8714131,-122.2496351,1
2400 BLK HEARST AVE,"2400 Hearst Ave, Berkeley, CA 94709, USA",37.8747027,-122.2622493,1
1755 SPRUCE,"1755 Spruce St, Berkeley, CA 94709, USA",37.875979,-122.2651669,1
E/580,,,,1
TELE / DURANT,"Telegraph Ave & Durant Ave, Berkeley, CA 94704, USA",37.867814,-122.2589767,1
MILVIA S OF UNIV,,,,1
ACROSS REC SPRT FAC/BAN,,,,1
ANNA HEAD/E,"Anna Head Alumnae Hall, 2537 Haste St, Berkeley, CA 94720, USA",37.8663273,-122.2575953,1
RIM CENTENNIEL,,,,1
SMYTH RD,"Smyth Rd, Berkeley, CA 94720, USA",37.867363,-122.2456569,1
DANA DUR,Durant Ave & Dana St,37.867422,-122.261416,1
TELE W BANC,Telegraph Ave & Bancroft St,37.8687329,-122.2613491,1
DURANT/TELE,"Telegraph Ave & Durant Ave, Berkeley, CA 94704, USA",37.867814,-122.2589767,1
2200 BANCROFT/FULTON,"Bancroft Way & Fulton St, Berkeley, CA 94704, USA",37.8678341,-122.2658836,1
CKC NORTH WEST LOT,"Clark Kerr Campus, 2602 Warring St, Berkeley, CA 94720, USA",37.8641271,-122.2503106,1
BANC W/COLL,"Bancroft Way & College Ave, Berkeley, CA 94704, USA",37.8692972,-122.2546034,1
ERHMAN HALL UNIT 2,"Ehrman Hall, #2, Berkeley, CA 94720, USA",37.8658323,-122.2553345,1
MONROE/JACKSON,"Jackson St & Monroe St, Albany, CA 94706, USA",37.8840891,-122.2998447,1
TELE-CHAN,"Channing Way, Berkeley, CA, USA",37.8648835,-122.2745796,
2441 DURANT AVE,"2441 Durant Ave, Berkeley, CA 94704, USA",37.867924,-122.2593741,
TELE / CHAN,"Telegraph Ave & Channing Way, Berkeley, CA 94704, USA",37.866914,-122.2587858,
GRIZZLY PEAK BLVD PEAK BLVD,"Grizzly Peak Chill Spot, 4348 Grizzly Peak Blvd, Berkeley, CA 94705, USA",37.8722807,-122.2204686,
HERCULES CA,"Berkeley, San Pablo, CA 94806, USA",37.9999768,-122.3255965,
RFS-163,"Berkeley, CA, USA",37.8715926,-122.272747,
2400 BLK DURANT,"2400 Durant Ave, Berkeley, CA 94720, USA",37.8673847,-122.2609578,
VALLEJO WB 780 E/ GLEN COVE,"Glen Ave, Berkeley, CA, USA",37.8854866,-122.2642681,
33 MONTEGO KEYS NOVATO,"Berkeley, CA, USA",37.8715926,-122.272747,
COLLEGE N/ DURANT,"College Ave & Durant Ave, Berkeley, CA 94704, USA",37.8683469,-122.2544485,
UVA FIELDS,University Village Apartments,37.8849256,-122.3010808,
GAYLEY/ GREEK THEATER THEATER,"Berkeley, CA, USA",37.8715926,-122.272747,
UNKNOWN - CAMPUS,"Berkeley, CA, USA",37.8715926,-122.272747,
SUTARDJA DAI HALL / BLUM HALL,"Blum Hall, Berkeley, CA 94709, USA",37.8750255,-122.2588054,
2511 PIEDMONT AV,"2511 Piedmont Ave, Berkeley, CA 94704, USA",37.8657122,-122.2513478,
CENTENNIAL DR / RIMWAY,"Centennial Dr & Stadium Rim Way, Berkeley, CA 94720, USA",37.8714131,-122.2496351,
ROMANA`S CAFE,"Berkeley, CA, USA",37.8715926,-122.272747,
2585 TELEGRAPH AV,"2585 Telegraph Ave, Berkeley, CA 94704, USA",37.8637101,-122.2582737,
DUR FUL,"Berkeley, CA, USA",37.8715926,-122.272747,
2195 HEARST AVE,"2195 Hearst Ave, Berkeley, CA 94720, USA",37.8744106,-122.2669389,
2520 WARRING,"2520 Warring St, Berkeley, CA 94704, USA",37.8651247,-122.2506597,
6900 BROADWAY,"6900 Broadway, Oakland, CA 94611, USA",37.8500593,-122.2216915,
2460 BANCROFT,"2460 Bancroft Way, Berkeley, CA 94704, USA",37.8684224,-122.2600599,
UNIT-2 UNIT-2 GRIFFITH,"Griffiths Hall, #2, Berkeley, CA 94720, USA",37.8658151,-122.2542694,
BARROWS,"Barrows Hall, Berkeley, CA 94720, USA",37.8700441,-122.2579335,
2533 HILLEGASS,"2533 Hillegass Ave, Berkeley, CA 94704, USA",37.864203,-122.256013,
2350 BOWDITCH ST,"2350 Bowditch St, Berkeley, CA 94704, USA",37.8676459,-122.2566961,
HARRISON 10TH,"Berkeley, CA, USA",37.8715926,-122.272747,
UNI SAC,"University Av:Sacramento St, Berkeley, CA 94703, USA",37.870586,-122.281627,
750 - 43RD ST,"750 43rd St, Oakland, CA 94609, USA",37.83274,-122.269921,
9TH / GILMAN,"Gilman St & 9th St, Berkeley, CA 94710, USA",37.8800271,-122.2980681,
0 FOOTHILL-2,"Foothill Student Housing 2, Berkeley, CA 94709, USA",37.8763325,-122.2565547,
PIEDMONT / DURANT,"Piedmont Ave & Durant Ave, Berkeley, CA 94704, USA",37.8686768,-122.2522753,
UNI/SHATTUCK,"University Ave & Shattuck Ave, Berkeley, CA 94704, USA",37.8721732,-122.2678009,
CENTENNIAL DR E OF THE MEMORIAL STADIUM,"Berkeley, CA, USA",37.8715926,-122.272747,
2395 CHANNING,"2395 Channing Way, Berkeley, CA 94704, USA",37.8666291,-122.2611372,
BANCROFT/ IFO TANG CENTER,"Berkeley, CA, USA",37.8715926,-122.272747,
ETNA / PARKER,"Parker St & Etna St, Berkeley, CA 94704, USA",37.8639899,-122.2525687,
2732 HILLEGASS,"2732 Hillegass Ave, Berkeley, CA 94705, USA",37.8604004,-122.2561213,
2538 CHANNING WAY/ANNA HEAD,"Berkeley, CA, USA",37.8715926,-122.272747,
RIMWAY / GAYLEY,"Gayley Rd & Stadium Rim Way, Berkeley, CA 94720, USA",37.8725667,-122.2537582,
SAN PABLO/PAIGE,"San Pablo Ave & Page St, Berkeley, CA 94702, USA",37.8775489,-122.2949228,
SHATT/KITT,"Berkeley, CA, USA",37.8715926,-122.272747,
3224 DWINELLE HALL,"Dwinelle, South Dr, Berkeley, CA 94720, USA",37.87077,-122.2605773,
BLAKE CALIFORNIA,"Blake St, Berkeley, CA, USA",37.8622127,-122.2738981,
2328 PIEDMONT,"2328 Piedmont Ave, Berkeley, CA 94704, USA",37.8684914,-122.2524815,
2302 DWIGHT WAY,"2302 Dwight Way, Berkeley, CA 94704, USA",37.8645462,-122.2628197,
UNIT-3 BEVERLY CLEARY,"Beverly Cleary Hall, #3, Berkeley, CA 94704, USA",37.866433,-122.259553,
EAST AFRICA,"African American House, 2347 Prospect St, Berkeley, CA 94720, USA",37.8683609,-122.2497591,
24 NEW HAVEN,"Berkeley, CA, USA",37.8715926,-122.272747,
0 CALVIN LAB,"Melvin Calvin Laboratory, Berkeley, CA 94720, USA",37.8709969,-122.2539394,
0 CREDIT UNION,"Building 202, 850 Avenue H, San Francisco, CA 94130, USA",37.8269279,-122.3703632,
STRAWBERRY CREEK,"Strawberry Creek, Berkeley, CA, USA",37.8711905,-122.2602113,
2211 CHANNING,"2211 Channing Way, Berkeley, CA 94704, USA",37.86636,-122.265134,
SPACE SCIENCES ADD,"Berkeley, CA, USA",37.8715926,-122.272747,
MONROE/W/10TH,"10th St & Monroe St, Albany, CA 94706, USA",37.8843879,-122.2982971,
2638 REGENT,"2638 Regent St, Berkeley, CA 94704, USA",37.861962,-122.257852,
2150 SHATTUCK AVE,"2150 Shattuck Ave, Berkeley, CA 94704, USA",37.870019,-122.268613,
2215 CHANNING,"2215 Channing Way, Berkeley, CA 94704, USA",37.8663809,-122.264969,
2517 PIEDMONT,"2517 Piedmont Ave, Berkeley, CA 94704, USA",37.865217,-122.2512681,
BLAKE/CHILTON,"Blake St & Chilton Way, Berkeley, CA 94704, USA",37.8640666,-122.2595286,
2539 TELEGRAPH AV,"2539 Telegraph Ave, Berkeley, CA 94704, USA",37.8642116,-122.2581696,
2556 TELEGRAPH AV,"2556 Telegraph Ave, Berkeley, CA 94704, USA",37.8639074,-122.2589732,
2535 REGENT,"2535 Regent St, Berkeley, CA 94704, USA",37.864002,-122.257308,
ALLSTON/OXFORD,"Oxford St & Allston Way, Berkeley, CA 94704, USA",37.8696581,-122.2657298,
ROSS POLICE DEPT,"Berkeley, CA, USA",37.8715926,-122.272747,
RIMWAY/CANYON,"Stadium Rim Way & Canyon Rd, Berkeley, CA 94704, USA",37.8703311,-122.2495002,
LECONTE LEROY,"Berkeley, CA, USA",37.8715926,-122.272747,
